{
  "version": 0.6,
  "generator": "Overpass API",
  "osm3s": {
    "timestamp_osm_base": "2017-04-25T16:36:30Z",
    "copyright": "The data included in this document is from www.openstreetmap.org. The data is made available under ODbL."
  },
  "elements": [

{
  "type": "node",
  "id": 1611124269,
  "lat": 5.5490461,
  "lon": -0.2032663,
  "tags": {
    "amenity": "marketplace"
  }
},
{
  "type": "node",
  "id": 2148020792,
  "lat": 5.6081302,
  "lon": -0.2564115,
  "tags": {
    "amenity": "marketplace",
    "name": "Chantan New Market"
  }
},
{
  "type": "node",
  "id": 2148020840,
  "lat": 5.6392602,
  "lon": -0.2138419,
  "tags": {
    "amenity": "marketplace",
    "name": "Kisseman Market"
  }
},
{
  "type": "node",
  "id": 2148021097,
  "lat": 5.5523258,
  "lon": -0.2376556,
  "tags": {
    "amenity": "marketplace",
    "name": "Sabon Zongo Market"
  }
},
{
  "type": "node",
  "id": 2151944575,
  "lat": 5.5607756,
  "lon": -0.1569241,
  "tags": {
    "amenity": "marketplace",
    "name": "La Main Market"
  }
},
{
  "type": "node",
  "id": 2151944591,
  "lat": 5.6004693,
  "lon": -0.0792959,
  "tags": {
    "amenity": "marketplace",
    "name": "Nungua Market"
  }
},
{
  "type": "node",
  "id": 2152138387,
  "lat": 5.6791257,
  "lon": -0.1691223,
  "tags": {
    "amenity": "marketplace"
  }
},
{
  "type": "node",
  "id": 3109282498,
  "lat": 5.5686389,
  "lon": -0.2168619,
  "tags": {
    "amenity": "marketplace",
    "name": "Odoornaa Market"
  }
},
{
  "type": "node",
  "id": 3154426148,
  "lat": 5.6074700,
  "lon": -0.2480086,
  "tags": {
    "amenity": "marketplace",
    "name": "Lapaz Street Market"
  }
},
{
  "type": "way",
  "id": 261185626,
  "center": {
    "lat": 5.5309161,
    "lon": -0.2346042
  },
  "nodes": [
    2148021140,
    2668178032,
    2668178033,
    2668178034,
    2668178029,
    2668178024,
    2668178021,
    2668178030,
    2668178023,
    2668178022,
    2668178031,
    2148021140
  ],
  "tags": {
    "amenity": "marketplace",
    "name": "Tuesday Market"
  }
},
{
  "type": "way",
  "id": 202488344,
  "center": {
    "lat": 5.5401817,
    "lon": -0.2096873
  },
  "nodes": [
    2124542571,
    2124542573,
    2124542570,
    2124542565,
    2124542567,
    2124542571
  ],
  "tags": {
    "amenity": "marketplace",
    "building": "yes",
    "name": "Salaga Market"
  }
},
{
  "type": "way",
  "id": 295106221,
  "center": {
    "lat": 5.5551570,
    "lon": -0.2264128
  },
  "nodes": [
    2987757368,
    2995447021,
    2497162655,
    2987757362,
    2917311760,
    2917311759,
    2987757363,
    4713828360,
    2987757368
  ],
  "tags": {
    "amenity": "marketplace",
    "name": "Agbogbloshie Onion Market"
  }
},
{
  "type": "way",
  "id": 414615655,
  "center": {
    "lat": 5.5798146,
    "lon": -0.2083065
  },
  "nodes": [
    4157336074,
    4157336071,
    4157336069,
    4157336070,
    4157336074
  ],
  "tags": {
    "amenity": "marketplace",
    "name": "Mallam Atta Market",
    "shop": "greengrocer"
  }
},
{
  "type": "way",
  "id": 377954173,
  "center": {
    "lat": 5.6244504,
    "lon": -0.1785204
  },
  "nodes": [
    3813613975,
    3813613974,
    3813613968,
    3813613966,
    3813613963,
    3813613959,
    3813613960,
    3813613973,
    3813613975
  ],
  "tags": {
    "amenity": "marketplace",
    "name": "African Market"
  }
},
{
  "type": "way",
  "id": 397552322,
  "center": {
    "lat": 5.5876045,
    "lon": -0.1067765
  },
  "nodes": [
    4003400989,
    4003400990,
    4003400991,
    4003400992,
    4003400993,
    4003400994,
    4003400995,
    4003400996,
    4003400997,
    4003400989
  ],
  "tags": {
    "amenity": "marketplace",
    "building": "residential",
    "name": "Tsui Bleo Market"
  }
},
{
  "type": "way",
  "id": 419698151,
  "center": {
    "lat": 5.6793672,
    "lon": -0.1694038
  },
  "nodes": [
    4197069018,
    4197069019,
    4197069020,
    4197069021,
    4197069022,
    4197069023,
    4197069024,
    4197069025,
    4197069026,
    4197069027,
    4197069028,
    4197069030,
    4197069029,
    4197069031,
    4197069032,
    4197069033,
    4197069018
  ],
  "tags": {
    "amenity": "marketplace",
    "name": "Madina Market"
  }
},
{
  "type": "way",
  "id": 261185626,
  "nodes": [
    2148021140,
    2668178032,
    2668178033,
    2668178034,
    2668178029,
    2668178024,
    2668178021,
    2668178030,
    2668178023,
    2668178022,
    2668178031,
    2148021140
  ],
  "tags": {
    "amenity": "marketplace",
    "name": "Tuesday Market"
  }
},
{
  "type": "way",
  "id": 202488344,
  "nodes": [
    2124542571,
    2124542573,
    2124542570,
    2124542565,
    2124542567,
    2124542571
  ],
  "tags": {
    "amenity": "marketplace",
    "building": "yes",
    "name": "Salaga Market"
  }
},
{
  "type": "way",
  "id": 295106221,
  "nodes": [
    2987757368,
    2995447021,
    2497162655,
    2987757362,
    2917311760,
    2917311759,
    2987757363,
    4713828360,
    2987757368
  ],
  "tags": {
    "amenity": "marketplace",
    "name": "Agbogbloshie Onion Market"
  }
},
{
  "type": "way",
  "id": 414615655,
  "nodes": [
    4157336074,
    4157336071,
    4157336069,
    4157336070,
    4157336074
  ],
  "tags": {
    "amenity": "marketplace",
    "name": "Mallam Atta Market",
    "shop": "greengrocer"
  }
},
{
  "type": "way",
  "id": 377954173,
  "nodes": [
    3813613975,
    3813613974,
    3813613968,
    3813613966,
    3813613963,
    3813613959,
    3813613960,
    3813613973,
    3813613975
  ],
  "tags": {
    "amenity": "marketplace",
    "name": "African Market"
  }
},
{
  "type": "way",
  "id": 397552322,
  "nodes": [
    4003400989,
    4003400990,
    4003400991,
    4003400992,
    4003400993,
    4003400994,
    4003400995,
    4003400996,
    4003400997,
    4003400989
  ],
  "tags": {
    "amenity": "marketplace",
    "building": "residential",
    "name": "Tsui Bleo Market"
  }
},
{
  "type": "way",
  "id": 419698151,
  "nodes": [
    4197069018,
    4197069019,
    4197069020,
    4197069021,
    4197069022,
    4197069023,
    4197069024,
    4197069025,
    4197069026,
    4197069027,
    4197069028,
    4197069030,
    4197069029,
    4197069031,
    4197069032,
    4197069033,
    4197069018
  ],
  "tags": {
    "amenity": "marketplace",
    "name": "Madina Market"
  }
}

  ]
}
