{
"type": "FeatureCollection",
"features": [
{
  "type": "Feature",
  "id": "way/49217485",
  "properties": {
    "amenity": "bus_station",
    "internet_access": "no",
    "name": "Gare routière Inezgane",
    "id": "way/49217485"
  },
  "geometry": {
    "type": "Point",
    "coordinates": [
      -9.5270405,
      30.3597271
    ]
  }
},
{
  "type": "Feature",
  "id": "way/135885006",
  "properties": {
    "amenity": "bus_station",
    "building": "yes",
    "name": "Gare Routiere",
    "public_transport": "station",
    "id": "way/135885006"
  },
  "geometry": {
    "type": "Point",
    "coordinates": [
      -9.5657455,
      30.4164374
    ]
  }
},
{
  "type": "Feature",
  "id": "way/135885009",
  "properties": {
    "amenity": "bus_station",
    "name": "موقف الحافلات",
    "id": "way/135885009"
  },
  "geometry": {
    "type": "Point",
    "coordinates": [
      -9.5654278,
      30.4157109
    ]
  }
},
{
  "type": "Feature",
  "id": "way/382880743",
  "properties": {
    "amenity": "bus_station",
    "name": "Gare ALSA",
    "operator": "ALSA",
    "id": "way/382880743"
  },
  "geometry": {
    "type": "Point",
    "coordinates": [
      -9.5288209,
      30.3588794
    ]
  }
},
{
  "type": "Feature",
  "id": "way/388860131",
  "properties": {
    "amenity": "bus_station",
    "name": "ALSA",
    "id": "way/388860131"
  },
  "geometry": {
    "type": "Point",
    "coordinates": [
      -9.5286237,
      30.3933171
    ]
  }
},
{
  "type": "Feature",
  "id": "way/428364127",
  "properties": {
    "amenity": "bus_station",
    "name": "CTM",
    "id": "way/428364127"
  },
  "geometry": {
    "type": "Point",
    "coordinates": [
      -9.5322467,
      30.3888241
    ]
  }
},
{
  "type": "Feature",
  "id": "node/909316179",
  "properties": {
    "amenity": "bus_station",
    "name": "Supratours",
    "id": "node/909316179"
  },
  "geometry": {
    "type": "Point",
    "coordinates": [
      -9.5604391,
      30.4203169
    ]
  }
},
{
  "type": "Feature",
  "id": "node/2561974496",
  "properties": {
    "amenity": "bus_station",
    "name": "CTM bus station",
    "id": "node/2561974496"
  },
  "geometry": {
    "type": "Point",
    "coordinates": [
      -9.5657174,
      30.4159887
    ]
  }
},
{
  "type": "Feature",
  "id": "node/4697889491",
  "properties": {
    "amenity": "bus_station",
    "name": "اغير اودرضور",
    "name:ar": "اغير اودرضور",
    "id": "node/4697889491"
  },
  "geometry": {
    "type": "Point",
    "coordinates": [
      -9.5453661,
      30.4429101
    ]
  }
}
]
}
