{
"type": "FeatureCollection",
"features": [
{
  "type": "Feature",
  "id": "way/381294710",
  "properties": {
    "amenity": "hospital",
    "barrier": "wall",
    "name": "Centre de santé Irhalne المركز الصحي إرحالن",
    "name:ar": "المركز الصحي إرحالن",
    "name:fr": "Centre de santé Irhalne",
    "id": "way/381294710"
  },
  "geometry": {
    "type": "Point",
    "coordinates": [
      -9.5412183,
      30.3667288
    ]
  }
},
{
  "type": "Feature",
  "id": "way/381345487",
  "properties": {
    "amenity": "hospital",
    "name": "المستشفى الاقليمي لانزكان",
    "id": "way/381345487"
  },
  "geometry": {
    "type": "Point",
    "coordinates": [
      -9.5365689,
      30.3530517
    ]
  }
},
{
  "type": "Feature",
  "id": "way/381821157",
  "properties": {
    "amenity": "hospital",
    "id": "way/381821157"
  },
  "geometry": {
    "type": "Point",
    "coordinates": [
      -9.5895525,
      30.4282209
    ]
  }
},
{
  "type": "Feature",
  "id": "way/382248560",
  "properties": {
    "amenity": "hospital",
    "name": "Centre de Santé",
    "id": "way/382248560"
  },
  "geometry": {
    "type": "Point",
    "coordinates": [
      -9.5258537,
      30.3674101
    ]
  }
},
{
  "type": "Feature",
  "id": "way/383480299",
  "properties": {
    "amenity": "hospital",
    "name": "Centre de Santé Tabarine",
    "id": "way/383480299"
  },
  "geometry": {
    "type": "Point",
    "coordinates": [
      -9.5324277,
      30.3719426
    ]
  }
},
{
  "type": "Feature",
  "id": "way/395344587",
  "properties": {
    "amenity": "hospital",
    "id": "way/395344587"
  },
  "geometry": {
    "type": "Point",
    "coordinates": [
      -9.5029896,
      30.3768019
    ]
  }
},
{
  "type": "Feature",
  "id": "way/398750216",
  "properties": {
    "amenity": "hospital",
    "id": "way/398750216"
  },
  "geometry": {
    "type": "Point",
    "coordinates": [
      -9.5908043,
      30.4363054
    ]
  }
},
{
  "type": "Feature",
  "id": "way/422929470",
  "properties": {
    "amenity": "hospital",
    "name": "مركز صحي",
    "id": "way/422929470"
  },
  "geometry": {
    "type": "Point",
    "coordinates": [
      -9.5349179,
      30.3535448
    ]
  }
},
{
  "type": "Feature",
  "id": "node/1056895892",
  "properties": {
    "amenity": "hospital",
    "name": "Hôpital Hassan II",
    "id": "node/1056895892"
  },
  "geometry": {
    "type": "Point",
    "coordinates": [
      -9.5906314,
      30.4364436
    ]
  }
},
{
  "type": "Feature",
  "id": "node/1509637087",
  "properties": {
    "amenity": "hospital",
    "name": "Dispensaire de Dakhla",
    "id": "node/1509637087"
  },
  "geometry": {
    "type": "Point",
    "coordinates": [
      -9.5570751,
      30.4111154
    ]
  }
},
{
  "type": "Feature",
  "id": "node/3994099031",
  "properties": {
    "amenity": "hospital",
    "name": "المستشفى العسكري",
    "name:en": "Military Hospital",
    "id": "node/3994099031"
  },
  "geometry": {
    "type": "Point",
    "coordinates": [
      -9.5502319,
      30.3757529
    ]
  }
},
{
  "type": "Feature",
  "id": "node/4014963861",
  "properties": {
    "amenity": "hospital",
    "name": "Centre Oncologie",
    "id": "node/4014963861"
  },
  "geometry": {
    "type": "Point",
    "coordinates": [
      -9.591868,
      30.4373574
    ]
  }
},
{
  "type": "Feature",
  "id": "node/4014963868",
  "properties": {
    "amenity": "hospital",
    "name": "Institut de Formation aux Carrières de Santé (IFCS)",
    "office": "educational_institution",
    "id": "node/4014963868"
  },
  "geometry": {
    "type": "Point",
    "coordinates": [
      -9.5885356,
      30.4370606
    ]
  }
},
{
  "type": "Feature",
  "id": "node/4366415095",
  "properties": {
    "amenity": "hospital",
    "name": "Tilila",
    "id": "node/4366415095"
  },
  "geometry": {
    "type": "Point",
    "coordinates": [
      -9.583423,
      30.4233322
    ]
  }
}
]
}
