{
"type": "FeatureCollection",
"features": [
{
  "type": "Feature",
  "id": "way/285944951",
  "properties": {
    "amenity": "university",
    "area": "yes",
    "barrier": "wall",
    "name": "UPB ex Centre de calcul",
    "short_name": "CFR",
    "id": "way/285944951"
  },
  "geometry": {
    "type": "Point",
    "coordinates": [
      -4.3149602,
      11.1646054
    ]
  }
},
{
  "type": "Feature",
  "id": "way/314096563",
  "properties": {
    "amenity": "university",
    "id": "way/314096563"
  },
  "geometry": {
    "type": "Point",
    "coordinates": [
      -4.4176148,
      11.2092606
    ]
  }
},
{
  "type": "Feature",
  "id": "way/357948912",
  "properties": {
    "amenity": "university",
    "building": "yes",
    "name": "Institut National des Sciences de la Santé",
    "source": "bing;survey",
    "id": "way/357948912"
  },
  "geometry": {
    "type": "Point",
    "coordinates": [
      -4.3622102,
      11.1820509
    ]
  }
},
{
  "type": "Feature",
  "id": "node/737617777",
  "properties": {
    "addr:full": "Ouest dans le village de Nasso, Bobo-Dioulasso, Burkina Faso",
    "amenity": "university",
    "contact:email": "info@univ-bobo.bf",
    "contact:facebook": "www.facebook.com/Universit%C3%A9-Polytechnique-de-Bobo-Dioulasso-178236412252888/?ref=ts&fref=ts",
    "contact:phone": "+226 20 98 06 35",
    "contact:website": "www.univ-bobo.bf",
    "description": "L'UPB est un établissement public de l’État à caractère scientifique, culturel et technique (EPSCT) chargé d’enseignement supérieur et de recherche scientifique.",
    "id:uuid": "urn:fonderie_ile-de-france_pnt_id:universite-polytechnique-de-bobo-dioulasso",
    "name": "Université Polytechnique de Bobo Dioulasso",
    "operator:type": "public",
    "project:oif-dfen_carteinnov": "yes",
    "short_name": "UPB",
    "source": "local_knowledge;oif-dfen_carteinnov;fonderie_ile-de-france",
    "source:date": "2016-09-23",
    "source:geometry": "survey;oif-dfen_carteinnov",
    "start_date": "1997",
    "id": "node/737617777"
  },
  "geometry": {
    "type": "Point",
    "coordinates": [
      -4.4184406,
      11.2098166
    ]
  }
},
{
  "type": "Feature",
  "id": "node/3459771763",
  "properties": {
    "amenity": "university",
    "name": "U-AUBEN",
    "operator:type": "private",
    "source": "survey",
    "id": "node/3459771763"
  },
  "geometry": {
    "type": "Point",
    "coordinates": [
      -4.3239379,
      11.1896948
    ]
  }
},
{
  "type": "Feature",
  "id": "node/3583900863",
  "properties": {
    "amenity": "university",
    "name": "Institut Africaine de Management",
    "id": "node/3583900863"
  },
  "geometry": {
    "type": "Point",
    "coordinates": [
      -4.3242013,
      11.1890292
    ]
  }
},
{
  "type": "Feature",
  "id": "node/3641217672",
  "properties": {
    "amenity": "university",
    "name": "Institut National des Sciences de la Santé",
    "id": "node/3641217672"
  },
  "geometry": {
    "type": "Point",
    "coordinates": [
      -4.3631545,
      11.1818205
    ]
  }
},
{
  "type": "Feature",
  "id": "node/3739602490",
  "properties": {
    "amenity": "university",
    "name": "Université Aube Nouvelle",
    "operator:type": "private",
    "short_name": "ISIG",
    "source": "survey",
    "id": "node/3739602490"
  },
  "geometry": {
    "type": "Point",
    "coordinates": [
      -4.3181752,
      11.2050012
    ]
  }
}
]
}
