{
"type": "FeatureCollection",
"features": [
{
  "type": "Feature",
  "id": "way/48729259",
  "properties": {
    "amenity": "hospital",
    "building": "yes",
    "name": "Clinique Kinoise",
    "id": "way/48729259"
  },
  "geometry": {
    "type": "Point",
    "coordinates": [
      15.27369,
      -4.3142303
    ]
  }
},
{
  "type": "Feature",
  "id": "way/57739002",
  "properties": {
    "amenity": "hospital",
    "building": "yes",
    "name": "Sanatorium de Makala",
    "id": "way/57739002"
  },
  "geometry": {
    "type": "Point",
    "coordinates": [
      15.2839368,
      -4.3818358
    ]
  }
},
{
  "type": "Feature",
  "id": "way/57889654",
  "properties": {
    "amenity": "hospital",
    "building": "yes",
    "name": "Hôpital SS Mabanga",
    "id": "way/57889654"
  },
  "geometry": {
    "type": "Point",
    "coordinates": [
      15.3207625,
      -4.359902
    ]
  }
},
{
  "type": "Feature",
  "id": "way/57898054",
  "properties": {
    "amenity": "hospital",
    "emergency": "yes",
    "name": "Centre Nganda",
    "source": "Local knowledge",
    "id": "way/57898054"
  },
  "geometry": {
    "type": "Point",
    "coordinates": [
      15.2658057,
      -4.3540801
    ]
  }
},
{
  "type": "Feature",
  "id": "way/102422512",
  "properties": {
    "amenity": "hospital",
    "name": "Hôpital du Cinquantenaire",
    "id": "way/102422512"
  },
  "geometry": {
    "type": "Point",
    "coordinates": [
      15.2963058,
      -4.3419047
    ]
  }
},
{
  "type": "Feature",
  "id": "way/362880802",
  "properties": {
    "amenity": "hospital",
    "id": "way/362880802"
  },
  "geometry": {
    "type": "Point",
    "coordinates": [
      15.2611866,
      -4.383029
    ]
  }
},
{
  "type": "Feature",
  "id": "way/368806391",
  "properties": {
    "amenity": "hospital",
    "name": "Hôpital Blanche Gomez",
    "id": "way/368806391"
  },
  "geometry": {
    "type": "Point",
    "coordinates": [
      15.2579977,
      -4.274571
    ]
  }
},
{
  "type": "Feature",
  "id": "way/368809375",
  "properties": {
    "amenity": "hospital",
    "name": "Hôpital de Talangaï",
    "id": "way/368809375"
  },
  "geometry": {
    "type": "Point",
    "coordinates": [
      15.295353,
      -4.2342291
    ]
  }
},
{
  "type": "Feature",
  "id": "way/368809377",
  "properties": {
    "amenity": "hospital",
    "name": "Centre Hospitalier Universitaire de Brazzaville (CHU-BZV)",
    "id": "way/368809377"
  },
  "geometry": {
    "type": "Point",
    "coordinates": [
      15.269596,
      -4.2649269
    ]
  }
},
{
  "type": "Feature",
  "id": "way/390204901",
  "properties": {
    "amenity": "hospital",
    "name": "Centre Psychiatrique du CHU",
    "operator": "CHU",
    "id": "way/390204901"
  },
  "geometry": {
    "type": "Point",
    "coordinates": [
      15.2644022,
      -4.2648398
    ]
  }
},
{
  "type": "Feature",
  "id": "way/404843994",
  "properties": {
    "amenity": "hospital",
    "id": "way/404843994"
  },
  "geometry": {
    "type": "Point",
    "coordinates": [
      15.2710466,
      -4.3347444
    ]
  }
},
{
  "type": "Feature",
  "id": "way/421156978",
  "properties": {
    "amenity": "hospital",
    "id": "way/421156978"
  },
  "geometry": {
    "type": "Point",
    "coordinates": [
      15.3813474,
      -4.3911874
    ]
  }
},
{
  "type": "Feature",
  "id": "node/440012909",
  "properties": {
    "amenity": "hospital",
    "name": "Hôpital Mutombo",
    "id": "node/440012909"
  },
  "geometry": {
    "type": "Point",
    "coordinates": [
      15.3815474,
      -4.392263
    ]
  }
},
{
  "type": "Feature",
  "id": "node/440013894",
  "properties": {
    "amenity": "hospital",
    "name": "Centre hospitalier Gen-Tai",
    "id": "node/440013894"
  },
  "geometry": {
    "type": "Point",
    "coordinates": [
      15.3292882,
      -4.3386207
    ]
  }
},
{
  "type": "Feature",
  "id": "node/440110090",
  "properties": {
    "amenity": "hospital",
    "name": "Centre hospitalier de la Banque commerciale du Congo",
    "id": "node/440110090"
  },
  "geometry": {
    "type": "Point",
    "coordinates": [
      15.3096972,
      -4.299313
    ]
  }
},
{
  "type": "Feature",
  "id": "node/440110512",
  "properties": {
    "addr:city": "Gombe",
    "addr:housenumber": "48",
    "addr:street": "Avenue de la Mongala",
    "amenity": "hospital",
    "name": "Centre médical de la Mongala",
    "phone": "+243 81 8841774",
    "id": "node/440110512"
  },
  "geometry": {
    "type": "Point",
    "coordinates": [
      15.3078819,
      -4.302553
    ]
  }
},
{
  "type": "Feature",
  "id": "node/441141197",
  "properties": {
    "amenity": "hospital",
    "name": "Hôpital de Kitambo",
    "id": "node/441141197"
  },
  "geometry": {
    "type": "Point",
    "coordinates": [
      15.2707759,
      -4.3343413
    ]
  }
},
{
  "type": "Feature",
  "id": "way/451549764",
  "properties": {
    "amenity": "hospital",
    "name": "Centre hospitalier Bolingo",
    "id": "way/451549764"
  },
  "geometry": {
    "type": "Point",
    "coordinates": [
      15.2997094,
      -4.3613788
    ]
  }
},
{
  "type": "Feature",
  "id": "way/476958794",
  "properties": {
    "amenity": "hospital",
    "building": "yes",
    "name": "Centre hospitalier du Mont-Amba",
    "operator": "Universté de Kinshasa",
    "id": "way/476958794"
  },
  "geometry": {
    "type": "Point",
    "coordinates": [
      15.3040571,
      -4.4107621
    ]
  }
},
{
  "type": "Feature",
  "id": "node/718489870",
  "properties": {
    "addr:city": "Gombe",
    "addr:housenumber": "81",
    "addr:street": "Avenue Mbuji Mayi",
    "amenity": "hospital",
    "name": "Centre Medical International",
    "note": "fix placement",
    "id": "node/718489870"
  },
  "geometry": {
    "type": "Point",
    "coordinates": [
      15.2963904,
      -4.3045553
    ]
  }
},
{
  "type": "Feature",
  "id": "node/718628352",
  "properties": {
    "amenity": "hospital",
    "name": "Maternité",
    "id": "node/718628352"
  },
  "geometry": {
    "type": "Point",
    "coordinates": [
      15.2611976,
      -4.3829711
    ]
  }
},
{
  "type": "Feature",
  "id": "node/755793137",
  "properties": {
    "amenity": "hospital",
    "name": "Hôpital de la Rive",
    "id": "node/755793137"
  },
  "geometry": {
    "type": "Point",
    "coordinates": [
      15.2453958,
      -4.3246241
    ]
  }
},
{
  "type": "Feature",
  "id": "node/789398720",
  "properties": {
    "amenity": "hospital",
    "name": "Les Cliniques BONDEKO",
    "id": "node/789398720"
  },
  "geometry": {
    "type": "Point",
    "coordinates": [
      15.3295359,
      -4.3522446
    ]
  }
},
{
  "type": "Feature",
  "id": "node/829315734",
  "properties": {
    "amenity": "hospital",
    "name": "Maternité",
    "id": "node/829315734"
  },
  "geometry": {
    "type": "Point",
    "coordinates": [
      15.3188436,
      -4.3681943
    ]
  }
},
{
  "type": "Feature",
  "id": "node/983582956",
  "properties": {
    "amenity": "hospital",
    "name": "Clinique Ngaliema",
    "id": "node/983582956"
  },
  "geometry": {
    "type": "Point",
    "coordinates": [
      15.2708218,
      -4.3147774
    ]
  }
},
{
  "type": "Feature",
  "id": "node/1424410520",
  "properties": {
    "amenity": "hospital",
    "name": "Ngaliema Center",
    "id": "node/1424410520"
  },
  "geometry": {
    "type": "Point",
    "coordinates": [
      15.2565931,
      -4.3328761
    ]
  }
},
{
  "type": "Feature",
  "id": "node/1911330663",
  "properties": {
    "amenity": "hospital",
    "name": "EPAC",
    "id": "node/1911330663"
  },
  "geometry": {
    "type": "Point",
    "coordinates": [
      15.2795917,
      -4.1533932
    ]
  }
},
{
  "type": "Feature",
  "id": "node/2143730497",
  "properties": {
    "amenity": "hospital",
    "name": "Centre Médical de Kinshasa",
    "phone": "00243998265004",
    "id": "node/2143730497"
  },
  "geometry": {
    "type": "Point",
    "coordinates": [
      15.3168527,
      -4.2995703
    ]
  }
},
{
  "type": "Feature",
  "id": "node/2273811569",
  "properties": {
    "amenity": "hospital",
    "name": "Hopital Générale de Réference de N'djili",
    "id": "node/2273811569"
  },
  "geometry": {
    "type": "Point",
    "coordinates": [
      15.3740855,
      -4.4031405
    ]
  }
},
{
  "type": "Feature",
  "id": "node/2273811572",
  "properties": {
    "amenity": "hospital",
    "name": "Hopital de l'Amitie Sino-Congolaise",
    "id": "node/2273811572"
  },
  "geometry": {
    "type": "Point",
    "coordinates": [
      15.3741868,
      -4.4036656
    ]
  }
},
{
  "type": "Feature",
  "id": "node/2299738104",
  "properties": {
    "amenity": "hospital",
    "name": "CBCO",
    "id": "node/2299738104"
  },
  "geometry": {
    "type": "Point",
    "coordinates": [
      15.2763662,
      -4.3436662
    ]
  }
},
{
  "type": "Feature",
  "id": "node/2299738115",
  "properties": {
    "amenity": "hospital",
    "name": "Centre de Transfusion Sanguine",
    "id": "node/2299738115"
  },
  "geometry": {
    "type": "Point",
    "coordinates": [
      15.2841189,
      -4.3503511
    ]
  }
},
{
  "type": "Feature",
  "id": "node/2953314336",
  "properties": {
    "addr:city": "kinshasa",
    "addr:street": "Avenue Itaga",
    "amenity": "hospital",
    "name": "Hopital de réfénce Scibe Congo",
    "id": "node/2953314336"
  },
  "geometry": {
    "type": "Point",
    "coordinates": [
      15.3258301,
      -4.3170506
    ]
  }
},
{
  "type": "Feature",
  "id": "node/3078092819",
  "properties": {
    "amenity": "hospital",
    "name": "Hôpital général provincial de référence",
    "old_name": "Hôpital Mama Yemo",
    "id": "node/3078092819"
  },
  "geometry": {
    "type": "Point",
    "coordinates": [
      15.3060664,
      -4.3088004
    ]
  }
},
{
  "type": "Feature",
  "id": "node/3300149702",
  "properties": {
    "amenity": "hospital",
    "name": "CNSS",
    "id": "node/3300149702"
  },
  "geometry": {
    "type": "Point",
    "coordinates": [
      15.2793316,
      -4.2325999
    ]
  }
},
{
  "type": "Feature",
  "id": "node/3725455976",
  "properties": {
    "amenity": "hospital",
    "name": "Hôpital Militaire",
    "id": "node/3725455976"
  },
  "geometry": {
    "type": "Point",
    "coordinates": [
      15.2680258,
      -4.2750606
    ]
  }
},
{
  "type": "Feature",
  "id": "node/3725455996",
  "properties": {
    "amenity": "hospital",
    "name": "Morgue de Brazzaville",
    "id": "node/3725455996"
  },
  "geometry": {
    "type": "Point",
    "coordinates": [
      15.2688418,
      -4.263336
    ]
  }
},
{
  "type": "Feature",
  "id": "node/4092511636",
  "properties": {
    "addr:street": "Bondo",
    "amenity": "hospital",
    "name": "centre bondeko",
    "id": "node/4092511636"
  },
  "geometry": {
    "type": "Point",
    "coordinates": [
      15.3082597,
      -4.3598643
    ]
  }
},
{
  "type": "Feature",
  "id": "node/4150480788",
  "properties": {
    "amenity": "hospital",
    "id": "node/4150480788"
  },
  "geometry": {
    "type": "Point",
    "coordinates": [
      15.3307645,
      -4.3879253
    ]
  }
},
{
  "type": "Feature",
  "id": "node/4483733542",
  "properties": {
    "amenity": "hospital",
    "name": "Centre Hospitalier Bolingo",
    "operator": "lier",
    "id": "node/4483733542"
  },
  "geometry": {
    "type": "Point",
    "coordinates": [
      15.2997082,
      -4.3613626
    ]
  }
},
{
  "type": "Feature",
  "id": "node/4545092889",
  "properties": {
    "amenity": "hospital",
    "name": "Hôpital de Makélékélé",
    "name:fr": "Hôpital de Makélékélé",
    "id": "node/4545092889"
  },
  "geometry": {
    "type": "Point",
    "coordinates": [
      15.2421179,
      -4.294632
    ]
  }
},
{
  "type": "Feature",
  "id": "node/4739752701",
  "properties": {
    "amenity": "hospital",
    "name": "Hopital General",
    "id": "node/4739752701"
  },
  "geometry": {
    "type": "Point",
    "coordinates": [
      15.2490271,
      -4.1926659
    ]
  }
},
{
  "type": "Feature",
  "id": "node/4774813133",
  "properties": {
    "amenity": "hospital",
    "name": "Centre d'excellence Damien CEDA",
    "name:fr": "Centre d'excellence Damien CEDA",
    "id": "node/4774813133"
  },
  "geometry": {
    "type": "Point",
    "coordinates": [
      15.2432459,
      -4.3252731
    ]
  }
}
]
}
