{
"type": "FeatureCollection",
"features": [
{
  "type": "Feature",
  "id": "way/221178404",
  "properties": {
    "amenity": "hospital",
    "building": "yes",
    "emergency": "yes",
    "name": "Infirmerie",
    "id": "way/221178404"
  },
  "geometry": {
    "type": "Point",
    "coordinates": [
      13.4038975,
      9.319093
    ]
  }
},
{
  "type": "Feature",
  "id": "way/221488873",
  "properties": {
    "amenity": "hospital",
    "barrier": "fence",
    "name": "Hôpital régionale de Garoua",
    "source": "MEADEN",
    "id": "way/221488873"
  },
  "geometry": {
    "type": "Point",
    "coordinates": [
      13.3880241,
      9.3049217
    ]
  }
},
{
  "type": "Feature",
  "id": "way/221598901",
  "properties": {
    "amenity": "hospital",
    "barrier": "fence",
    "description": "Unité de recherche médicale, de santé publique et de formation médicale",
    "name": "Centre pasteur",
    "note:date de création": "1985",
    "id": "way/221598901"
  },
  "geometry": {
    "type": "Point",
    "coordinates": [
      13.3863,
      9.3061048
    ]
  }
},
{
  "type": "Feature",
  "id": "way/221851738",
  "properties": {
    "amenity": "hospital",
    "name": "Hôpital de la Garnison",
    "source": "MEADEN",
    "id": "way/221851738"
  },
  "geometry": {
    "type": "Point",
    "coordinates": [
      13.3922405,
      9.3164782
    ]
  }
},
{
  "type": "Feature",
  "id": "way/222757439",
  "properties": {
    "amenity": "hospital",
    "barrier": "fence",
    "name": "Centre de santé integré de poumpoumré",
    "source": "MEADEN",
    "id": "way/222757439"
  },
  "geometry": {
    "type": "Point",
    "coordinates": [
      13.4109011,
      9.3333522
    ]
  }
},
{
  "type": "Feature",
  "id": "way/226093209",
  "properties": {
    "amenity": "hospital",
    "barrier": "fence",
    "name": "Hôpital de la CNPS",
    "source": "MEADEN",
    "id": "way/226093209"
  },
  "geometry": {
    "type": "Point",
    "coordinates": [
      13.39158,
      9.3028304
    ]
  }
},
{
  "type": "Feature",
  "id": "way/226234145",
  "properties": {
    "amenity": "hospital",
    "building": "yes",
    "name": "Centre de Santé intégré de Kolléré",
    "source": "MEADEN",
    "id": "way/226234145"
  },
  "geometry": {
    "type": "Point",
    "coordinates": [
      13.3884062,
      9.3034632
    ]
  }
},
{
  "type": "Feature",
  "id": "way/226401757",
  "properties": {
    "amenity": "hospital",
    "barrier": "wall",
    "name": "Centre de santé integré de Roumde-adjia",
    "source": "MEADEN",
    "id": "way/226401757"
  },
  "geometry": {
    "type": "Point",
    "coordinates": [
      13.393645,
      9.3279567
    ]
  }
},
{
  "type": "Feature",
  "id": "way/226540314",
  "properties": {
    "amenity": "hospital",
    "barrier": "fence",
    "name": "Clinique SOUTHIA",
    "source": "MEADEN",
    "id": "way/226540314"
  },
  "geometry": {
    "type": "Point",
    "coordinates": [
      13.403272,
      9.3344453
    ]
  }
},
{
  "type": "Feature",
  "id": "way/226562532",
  "properties": {
    "amenity": "hospital",
    "name": "Centre de santé integré de foulbéré",
    "source": "MEADEN",
    "id": "way/226562532"
  },
  "geometry": {
    "type": "Point",
    "coordinates": [
      13.4026797,
      9.3077057
    ]
  }
},
{
  "type": "Feature",
  "id": "way/226696084",
  "properties": {
    "amenity": "hospital",
    "name": "Hôpital militaire de Région",
    "id": "way/226696084"
  },
  "geometry": {
    "type": "Point",
    "coordinates": [
      13.3838615,
      9.3093046
    ]
  }
},
{
  "type": "Feature",
  "id": "way/227132759",
  "properties": {
    "amenity": "hospital",
    "barrier": "wall",
    "name": "Centre de Santé Integré de Laindé",
    "source": "MEADEN",
    "id": "way/227132759"
  },
  "geometry": {
    "type": "Point",
    "coordinates": [
      13.4147767,
      9.3475855
    ]
  }
},
{
  "type": "Feature",
  "id": "way/227338154",
  "properties": {
    "amenity": "hospital",
    "barrier": "wall",
    "name": "Centre de Santé Integré de Souari",
    "source": "MEADEN",
    "id": "way/227338154"
  },
  "geometry": {
    "type": "Point",
    "coordinates": [
      13.3925347,
      9.2919332
    ]
  }
},
{
  "type": "Feature",
  "id": "way/307522380",
  "properties": {
    "amenity": "hospital",
    "name": "Centre de Sante Integre de Nassarao",
    "id": "way/307522380"
  },
  "geometry": {
    "type": "Point",
    "coordinates": [
      13.4437431,
      9.3686079
    ]
  }
},
{
  "type": "Feature",
  "id": "way/307522403",
  "properties": {
    "amenity": "hospital",
    "name": "Centre de Sante de Takasko",
    "id": "way/307522403"
  },
  "geometry": {
    "type": "Point",
    "coordinates": [
      13.4220718,
      9.3526818
    ]
  }
},
{
  "type": "Feature",
  "id": "node/1067300988",
  "properties": {
    "amenity": "hospital",
    "name": "Centr de Sante Integre de Tinguelin",
    "id": "node/1067300988"
  },
  "geometry": {
    "type": "Point",
    "coordinates": [
      13.3809007,
      9.3962144
    ]
  }
},
{
  "type": "Feature",
  "id": "node/1067301136",
  "properties": {
    "amenity": "hospital",
    "name": "Centr de Sante Integre de Banaye",
    "id": "node/1067301136"
  },
  "geometry": {
    "type": "Point",
    "coordinates": [
      13.5079377,
      9.4649345
    ]
  }
},
{
  "type": "Feature",
  "id": "node/1067304174",
  "properties": {
    "State": "Under Construction",
    "amenity": "hospital",
    "name": "Centre de Sante Integre de Nguebake",
    "id": "node/1067304174"
  },
  "geometry": {
    "type": "Point",
    "coordinates": [
      13.5407175,
      9.3708099
    ]
  }
},
{
  "type": "Feature",
  "id": "node/1067306173",
  "properties": {
    "Malaria": "110/month",
    "No of Beds": "48",
    "No of INF": "7",
    "No of consultations": "300/month",
    "No.of Doctors": "1",
    "amenity": "hospital",
    "disease:AIDS:HIV": "1/month",
    "facilities": "Laboratory,Phamacy",
    "name": "Hopital district de Pitoa",
    "id": "node/1067306173"
  },
  "geometry": {
    "type": "Point",
    "coordinates": [
      13.5078617,
      9.3886932
    ]
  }
},
{
  "type": "Feature",
  "id": "node/1067306203",
  "properties": {
    "Cases of HIV/AIDS": "2/Month",
    "Cases of Malaria": "15/month",
    "No.of Consultations": "115/Month",
    "amenity": "hospital",
    "name": "Guerriseur Traditionnel",
    "id": "node/1067306203"
  },
  "geometry": {
    "type": "Point",
    "coordinates": [
      13.5023772,
      9.3821932
    ]
  }
},
{
  "type": "Feature",
  "id": "node/1067306299",
  "properties": {
    "Cases of HIV/AIDS": "36 -2010",
    "Consultation": "628/month",
    "Malaria": "213/month",
    "No of Beds": "7",
    "No of Nurses": "5",
    "amenity": "hospital",
    "facilities": "Laboratory,Phamacy",
    "name": "Hopital de Seurs de Pitoa",
    "id": "node/1067306299"
  },
  "geometry": {
    "type": "Point",
    "coordinates": [
      13.5108598,
      9.3925156
    ]
  }
},
{
  "type": "Feature",
  "id": "node/1067306381",
  "properties": {
    "amenity": "hospital",
    "name": "Hopital Moustapha de Pitoa Bounguel",
    "note:en": "No data sheet filled",
    "id": "node/1067306381"
  },
  "geometry": {
    "type": "Point",
    "coordinates": [
      13.4987594,
      9.3839583
    ]
  }
},
{
  "type": "Feature",
  "id": "node/2314529178",
  "properties": {
    "amenity": "hospital",
    "name": "Hôpital de police",
    "source": "MEADEN",
    "id": "node/2314529178"
  },
  "geometry": {
    "type": "Point",
    "coordinates": [
      13.3954136,
      9.3091712
    ]
  }
},
{
  "type": "Feature",
  "id": "node/2804356800",
  "properties": {
    "amenity": "hospital",
    "name": "Hopital Jésus sauve et guérit Full Gospel Mission",
    "id": "node/2804356800"
  },
  "geometry": {
    "type": "Point",
    "coordinates": [
      13.4104681,
      9.3284475
    ]
  }
},
{
  "type": "Feature",
  "id": "node/3114382268",
  "properties": {
    "amenity": "hospital",
    "designation": "CSI Kota-Liddire",
    "emergency": "no",
    "name": "Centre Sante Integre Kota-Liddire",
    "source": "Habdoul",
    "id": "node/3114382268"
  },
  "geometry": {
    "type": "Point",
    "coordinates": [
      13.4046633,
      9.3028114
    ]
  }
}
]
}
