{
"type": "FeatureCollection",
"features": [
{
  "type": "Feature",
  "id": "way/451977575",
  "properties": {
    "amenity": "hospital",
    "name": "Hôpital EL IDRISSI",
    "phone": "+212 537 373111",
    "id": "way/451977575"
  },
  "geometry": {
    "type": "Point",
    "coordinates": [
      -6.5782073,
      34.2483198
    ]
  }
},
{
  "type": "Feature",
  "id": "way/452143297",
  "properties": {
    "amenity": "hospital",
    "name": "Polyclinique de Kenitra",
    "phone": "+212 537 373635",
    "id": "way/452143297"
  },
  "geometry": {
    "type": "Point",
    "coordinates": [
      -6.5747815,
      34.2518462
    ]
  }
},
{
  "type": "Feature",
  "id": "way/452738714",
  "properties": {
    "amenity": "hospital",
    "name": "Hopital",
    "id": "way/452738714"
  },
  "geometry": {
    "type": "Point",
    "coordinates": [
      -6.5432781,
      34.2544386
    ]
  }
},
{
  "type": "Feature",
  "id": "node/4494540883",
  "properties": {
    "amenity": "hospital",
    "name": "Hôpital Régional de Kénitra",
    "id": "node/4494540883"
  },
  "geometry": {
    "type": "Point",
    "coordinates": [
      -6.57586,
      34.247003
    ]
  }
},
{
  "type": "Feature",
  "id": "node/4515651181",
  "properties": {
    "amenity": "hospital",
    "name": "مستودع الأموات",
    "id": "node/4515651181"
  },
  "geometry": {
    "type": "Point",
    "coordinates": [
      -6.5725199,
      34.2630264
    ]
  }
},
{
  "type": "Feature",
  "id": "node/4811307060",
  "properties": {
    "amenity": "hospital",
    "name": "Hôpital Psychatrie Kenitra (Chantier)",
    "id": "node/4811307060"
  },
  "geometry": {
    "type": "Point",
    "coordinates": [
      -6.5809379,
      34.2466553
    ]
  }
}
]
}
