{
"type": "FeatureCollection",
"features": [
{
  "type": "Feature",
  "id": "way/235835174",
  "properties": {
    "amenity": "university",
    "name": "Cirel du Village du Bénin",
    "id": "way/235835174"
  },
  "geometry": {
    "type": "Point",
    "coordinates": [
      1.2184031,
      6.1697086
    ]
  }
},
{
  "type": "Feature",
  "id": "way/307894650",
  "properties": {
    "addr:city": "Akodessewa - Port (Lomé)",
    "addr:housename": "ISPSH",
    "addr:postcode": "9141",
    "addr:street": "Avenue Mobutu Sese Seko",
    "alt_name": "Institut Supérieur de Philosophie et de Sciences Humaines \"Don Bosco\"",
    "amenity": "university",
    "fixme": "is it really Don Bosco area or the plot next to the north?",
    "int_name": "ISPSH Don Bosco",
    "name": "ISPSH Don Bosco",
    "source": "GPS",
    "id": "way/307894650"
  },
  "geometry": {
    "type": "Point",
    "coordinates": [
      1.267267,
      6.1474659
    ]
  }
},
{
  "type": "Feature",
  "id": "way/339716095",
  "properties": {
    "amenity": "university",
    "building": "university",
    "name": "Université Adonai",
    "wheelchair": "yes",
    "id": "way/339716095"
  },
  "geometry": {
    "type": "Point",
    "coordinates": [
      1.2201749,
      6.1595273
    ]
  }
},
{
  "type": "Feature",
  "id": "way/478527871",
  "properties": {
    "amenity": "university",
    "name": "UCAO-UUT",
    "operator": "Université Catholique de l’Afrique de l’Ouest",
    "id": "way/478527871"
  },
  "geometry": {
    "type": "Point",
    "coordinates": [
      1.1016878,
      6.2308095
    ]
  }
},
{
  "type": "Feature",
  "id": "node/3537301588",
  "properties": {
    "addr:full": "Doumassessé, Lomé, Togo",
    "amenity": "university",
    "contact:phone": "+228 22514419",
    "description": "IAET est une école supérieure spécialisée dans la formation des TIC",
    "name": "Institut Africain d’Administration et d’Etudes Technologiques",
    "operator": "BK Université",
    "operator:type": "private",
    "project:oif-dfen_carteinnov": "yes",
    "short_name": "IAET",
    "source": "local_knowledge;oif-dfen_carteinnov",
    "source:date": "2016-09-23",
    "source:geometry": "survey;oif-dfen_carteinnov",
    "start_date": "1986",
    "id": "node/3537301588"
  },
  "geometry": {
    "type": "Point",
    "coordinates": [
      1.2145105,
      6.1646274
    ]
  }
},
{
  "type": "Feature",
  "id": "node/3767548830",
  "properties": {
    "amenity": "university",
    "name": "Université de Lomé",
    "id": "node/3767548830"
  },
  "geometry": {
    "type": "Point",
    "coordinates": [
      1.2150047,
      6.1710179
    ]
  }
},
{
  "type": "Feature",
  "id": "node/3779983557",
  "properties": {
    "amenity": "university",
    "name": "langcenter international",
    "id": "node/3779983557"
  },
  "geometry": {
    "type": "Point",
    "coordinates": [
      1.2158516,
      6.1332602
    ]
  }
},
{
  "type": "Feature",
  "id": "node/3860728666",
  "properties": {
    "amenity": "university",
    "name": "DEFITECH II CAMPUS AWOUDJA",
    "id": "node/3860728666"
  },
  "geometry": {
    "type": "Point",
    "coordinates": [
      1.2514832,
      6.1913859
    ]
  }
},
{
  "type": "Feature",
  "id": "node/4405257894",
  "properties": {
    "addr:full": "01 BP 3518, Agoè Anomé, Lomé, Togo",
    "amenity": "university",
    "contact:email": "esiba-iua@esiba-iua.tg",
    "contact:phone": "+228 22511787;+228 90814178",
    "contact:website": "www.rsiba-iua.tg",
    "description": "Etablissement d'enseignement supérieur (licences professionnelles, master)",
    "name": "Business School Institut Supérieur",
    "office": "ngo",
    "operator": "KUEVIAKOE ASSIONGBON Vovomé",
    "operator:type": "private",
    "project:oif-dfen_carteinnov": "yes",
    "short_name": "ESIBA",
    "source": "local_knowledge;oif-dfen_carteinnov",
    "source:date": "2016-09-16",
    "source:geometry": "survey;oif-dfen_carteinnov",
    "start_date": "1990",
    "id": "node/4405257894"
  },
  "geometry": {
    "type": "Point",
    "coordinates": [
      1.189951,
      6.2087622
    ]
  }
},
{
  "type": "Feature",
  "id": "node/4620831287",
  "properties": {
    "abandoned": "no",
    "amenity": "university",
    "disused": "no",
    "name": "Institut Confucius",
    "operator:type": "private",
    "source": "Bing;Survey",
    "id": "node/4620831287"
  },
  "geometry": {
    "type": "Point",
    "coordinates": [
      1.212351,
      6.1700116
    ]
  }
},
{
  "type": "Feature",
  "id": "node/4621166438",
  "properties": {
    "amenity": "university",
    "name": "École Supérieure de Technologie Biologique et Alimentaire",
    "operator:type": "public",
    "source": "Bing;Survey",
    "id": "node/4621166438"
  },
  "geometry": {
    "type": "Point",
    "coordinates": [
      1.2130237,
      6.1776567
    ]
  }
},
{
  "type": "Feature",
  "id": "node/4621166439",
  "properties": {
    "amenity": "university",
    "name": "École des Assistants Médicaux",
    "short_name": "EAM",
    "source": "Bing;Survey",
    "id": "node/4621166439"
  },
  "geometry": {
    "type": "Point",
    "coordinates": [
      1.2124268,
      6.1773543
    ]
  }
},
{
  "type": "Feature",
  "id": "node/4621192540",
  "properties": {
    "abandoned": "no",
    "amenity": "university",
    "disused": "no",
    "name": "Faculté des Sciences de la Santé",
    "operator:type": "public",
    "source": "Bing;Survey",
    "id": "node/4621192540"
  },
  "geometry": {
    "type": "Point",
    "coordinates": [
      1.2130138,
      6.1771101
    ]
  }
}
]
}
