{
"type": "FeatureCollection",
"features": [
{
  "type": "Feature",
  "id": "way/251532785",
  "properties": {
    "amenity": "university",
    "area": "yes",
    "contact:website": "http://www.ump.ma/",
    "name": "Université Mohammed Premier Oujda - Faculté de Médecine et de Pharmacie",
    "name:fr": "Université Mohammed Premier Oujda - Faculté de Médecine et de Pharmacie",
    "id": "way/251532785"
  },
  "geometry": {
    "type": "Point",
    "coordinates": [
      -1.910632,
      34.6584698
    ]
  }
},
{
  "type": "Feature",
  "id": "way/293020624",
  "properties": {
    "amenity": "university",
    "name": "Université Mohammed Premier",
    "id": "way/293020624"
  },
  "geometry": {
    "type": "Point",
    "coordinates": [
      -1.903457,
      34.6518334
    ]
  }
},
{
  "type": "Feature",
  "id": "way/294491988",
  "properties": {
    "amenity": "university",
    "area": "yes",
    "name": "المعهد المتخصص للتكنولوجيا التطبيقية العونية",
    "name:fr": "Institut Spécialisé de Technologie Appliquée (ISTA) El Aounia",
    "id": "way/294491988"
  },
  "geometry": {
    "type": "Point",
    "coordinates": [
      -1.879844,
      34.6945113
    ]
  }
},
{
  "type": "Feature",
  "id": "way/326554023",
  "properties": {
    "amenity": "university",
    "name": "ISTA Sidi Maafa",
    "id": "way/326554023"
  },
  "geometry": {
    "type": "Point",
    "coordinates": [
      -1.8947254,
      34.6485961
    ]
  }
},
{
  "type": "Feature",
  "id": "way/326554025",
  "properties": {
    "amenity": "university",
    "name": "Faculté Des Sciences Juridiques, Economiques et Sociales",
    "id": "way/326554025"
  },
  "geometry": {
    "type": "Point",
    "coordinates": [
      -1.9024865,
      34.652931
    ]
  }
},
{
  "type": "Feature",
  "id": "way/383615249",
  "properties": {
    "amenity": "university",
    "name": "Campus Du Savoir",
    "website": "http://www.ump.ma/?page_id=1090",
    "id": "way/383615249"
  },
  "geometry": {
    "type": "Point",
    "coordinates": [
      -1.9458702,
      34.7679691
    ]
  }
}
]
}
