{
"type": "FeatureCollection",
"features": [
{
  "type": "Feature",
  "id": "way/152610307",
  "properties": {
    "amenity": "hospital",
    "name": "CHU Ibn Sina (Souissi)",
    "id": "way/152610307"
  },
  "geometry": {
    "type": "Point",
    "coordinates": [
      -6.8511169,
      33.9834808
    ]
  }
},
{
  "type": "Feature",
  "id": "way/152610310",
  "properties": {
    "amenity": "hospital",
    "name": "Hopital militaire d'instruction Mohammed V",
    "id": "way/152610310"
  },
  "geometry": {
    "type": "Point",
    "coordinates": [
      -6.8703074,
      33.9697303
    ]
  }
},
{
  "type": "Feature",
  "id": "way/176276373",
  "properties": {
    "amenity": "hospital",
    "emergency": "no",
    "id": "way/176276373"
  },
  "geometry": {
    "type": "Point",
    "coordinates": [
      -6.7462419,
      33.997628
    ]
  }
},
{
  "type": "Feature",
  "id": "way/221101263",
  "properties": {
    "amenity": "hospital",
    "building": "yes",
    "emergency": "no",
    "name": "Centre de santé",
    "id": "way/221101263"
  },
  "geometry": {
    "type": "Point",
    "coordinates": [
      -6.7972527,
      34.0457237
    ]
  }
},
{
  "type": "Feature",
  "id": "way/250293101",
  "properties": {
    "amenity": "hospital",
    "building": "yes",
    "name": "Nouveau Hopital My Abdellah",
    "id": "way/250293101"
  },
  "geometry": {
    "type": "Point",
    "coordinates": [
      -6.7536171,
      34.0261906
    ]
  }
},
{
  "type": "Feature",
  "id": "way/250293879",
  "properties": {
    "amenity": "hospital",
    "building": "yes",
    "name": "hôpital d'El Karia",
    "id": "way/250293879"
  },
  "geometry": {
    "type": "Point",
    "coordinates": [
      -6.766881,
      34.0232931
    ]
  }
},
{
  "type": "Feature",
  "id": "way/278585583",
  "properties": {
    "amenity": "hospital",
    "building": "yes",
    "name": "La capitale",
    "id": "way/278585583"
  },
  "geometry": {
    "type": "Point",
    "coordinates": [
      -6.8281984,
      34.0167546
    ]
  }
},
{
  "type": "Feature",
  "id": "way/289025339",
  "properties": {
    "amenity": "hospital",
    "name": "Hôpital Cheikh Zaid",
    "id": "way/289025339"
  },
  "geometry": {
    "type": "Point",
    "coordinates": [
      -6.8696998,
      33.9774971
    ]
  }
},
{
  "type": "Feature",
  "id": "way/395408474",
  "properties": {
    "amenity": "hospital",
    "building": "yes",
    "name": "Clinique El Amal",
    "id": "way/395408474"
  },
  "geometry": {
    "type": "Point",
    "coordinates": [
      -6.8226153,
      34.0130329
    ]
  }
},
{
  "type": "Feature",
  "id": "node/414130094",
  "properties": {
    "addr:street": "Avenue Ibn Sina",
    "amenity": "hospital",
    "emergency": "yes",
    "name": "Clinique Agdal",
    "id": "node/414130094"
  },
  "geometry": {
    "type": "Point",
    "coordinates": [
      -6.8510957,
      33.995735
    ]
  }
},
{
  "type": "Feature",
  "id": "node/414132094",
  "properties": {
    "amenity": "hospital",
    "name": "Clinique des Nations Unies",
    "id": "node/414132094"
  },
  "geometry": {
    "type": "Point",
    "coordinates": [
      -6.848904,
      33.9894639
    ]
  }
},
{
  "type": "Feature",
  "id": "way/482745706",
  "properties": {
    "amenity": "hospital",
    "id": "way/482745706"
  },
  "geometry": {
    "type": "Point",
    "coordinates": [
      -6.8490542,
      33.9893333
    ]
  }
},
{
  "type": "Feature",
  "id": "node/1824603678",
  "properties": {
    "amenity": "hospital",
    "designation": "Specialized hospital Head and neck",
    "emergency": "yes",
    "name": "Hopital Des Spécialités / HCU Ibn Sina",
    "id": "node/1824603678"
  },
  "geometry": {
    "type": "Point",
    "coordinates": [
      -6.8579501,
      33.981993
    ]
  }
},
{
  "type": "Feature",
  "id": "node/1824603685",
  "properties": {
    "amenity": "hospital",
    "designation": "Gynecology & obstetrics hospital",
    "emergency": "yes",
    "name": "Maternite du Souissi / CHU Ibn SIna",
    "id": "node/1824603685"
  },
  "geometry": {
    "type": "Point",
    "coordinates": [
      -6.8553644,
      33.9870994
    ]
  }
},
{
  "type": "Feature",
  "id": "node/1824603903",
  "properties": {
    "amenity": "hospital",
    "designation": "Ibn sina General hospital for adults",
    "emergency": "yes",
    "name": "Hopital Ibn Sina /CHU Ibn SIna",
    "id": "node/1824603903"
  },
  "geometry": {
    "type": "Point",
    "coordinates": [
      -6.8504077,
      33.9838968
    ]
  }
},
{
  "type": "Feature",
  "id": "node/1824603916",
  "properties": {
    "amenity": "hospital",
    "designation": "Pediatric hospital",
    "emergency": "yes",
    "name": "Hopital Des Enfants/ CHU Ibn Sina",
    "id": "node/1824603916"
  },
  "geometry": {
    "type": "Point",
    "coordinates": [
      -6.8544525,
      33.9866013
    ]
  }
},
{
  "type": "Feature",
  "id": "node/2423301745",
  "properties": {
    "amenity": "hospital",
    "name": "Clinique Belvedere Centre De Cardiologie",
    "id": "node/2423301745"
  },
  "geometry": {
    "type": "Point",
    "coordinates": [
      -6.841568,
      34.0107124
    ]
  }
},
{
  "type": "Feature",
  "id": "node/2429147955",
  "properties": {
    "amenity": "hospital",
    "emergency": "no",
    "name": "Laboratoire analyse médicale Latifa Ouali",
    "id": "node/2429147955"
  },
  "geometry": {
    "type": "Point",
    "coordinates": [
      -6.8468038,
      33.9934691
    ]
  }
},
{
  "type": "Feature",
  "id": "node/2448051288",
  "properties": {
    "amenity": "hospital",
    "name": "Polyclinique",
    "id": "node/2448051288"
  },
  "geometry": {
    "type": "Point",
    "coordinates": [
      -6.920307,
      33.9371786
    ]
  }
},
{
  "type": "Feature",
  "id": "node/2569037645",
  "properties": {
    "amenity": "hospital",
    "name": "Hopital Moulay Youssef",
    "id": "node/2569037645"
  },
  "geometry": {
    "type": "Point",
    "coordinates": [
      -6.8614686,
      34.0104102
    ]
  }
},
{
  "type": "Feature",
  "id": "node/3394023015",
  "properties": {
    "amenity": "hospital",
    "name": "Clinique Benjelloum",
    "id": "node/3394023015"
  },
  "geometry": {
    "type": "Point",
    "coordinates": [
      -6.823899,
      34.0151419
    ]
  }
},
{
  "type": "Feature",
  "id": "node/4324602015",
  "properties": {
    "addr:city": "TEMARA",
    "addr:postcode": "12000",
    "amenity": "hospital",
    "emergency": "no",
    "name": "Hospital Fath El Kheir",
    "operator": "Public",
    "id": "node/4324602015"
  },
  "geometry": {
    "type": "Point",
    "coordinates": [
      -6.9206094,
      33.9063777
    ]
  }
},
{
  "type": "Feature",
  "id": "node/4326891379",
  "properties": {
    "addr:city": "Témara تمارة",
    "amenity": "hospital",
    "emergency": "yes",
    "name": "Hôpital Sidi Lahcen",
    "operator": "Public",
    "id": "node/4326891379"
  },
  "geometry": {
    "type": "Point",
    "coordinates": [
      -6.9384961,
      33.9045718
    ]
  }
},
{
  "type": "Feature",
  "id": "node/4496682558",
  "properties": {
    "amenity": "hospital",
    "name": "Hopital Moulay Abdallah",
    "id": "node/4496682558"
  },
  "geometry": {
    "type": "Point",
    "coordinates": [
      -6.8124525,
      34.0376263
    ]
  }
},
{
  "type": "Feature",
  "id": "node/4499267989",
  "properties": {
    "amenity": "hospital",
    "name": "Hopital AYACHI",
    "id": "node/4499267989"
  },
  "geometry": {
    "type": "Point",
    "coordinates": [
      -6.8257727,
      34.034496
    ]
  }
},
{
  "type": "Feature",
  "id": "node/4499294017",
  "properties": {
    "amenity": "hospital",
    "name": "Croix rouge",
    "id": "node/4499294017"
  },
  "geometry": {
    "type": "Point",
    "coordinates": [
      -6.8242426,
      34.035256
    ]
  }
},
{
  "type": "Feature",
  "id": "node/4528979489",
  "properties": {
    "amenity": "hospital",
    "name": "مستشفي الشيخ زايد بالرباط",
    "name:ar": "مستشفي الشيخ زايد بالرباط",
    "id": "node/4528979489"
  },
  "geometry": {
    "type": "Point",
    "coordinates": [
      -6.868179,
      33.97765
    ]
  }
}
]
}
