{
"type": "FeatureCollection",
"features": [
{
  "type": "Feature",
  "id": "relation/6635355",
  "properties": {
    "amenity": "university",
    "name": "Universitas Hang Tuah",
    "type": "multipolygon",
    "id": "relation/6635355"
  },
  "geometry": {
    "type": "Point",
    "coordinates": [
      112.7368142,
      -7.3110504
    ]
  }
},
{
  "type": "Feature",
  "id": "relation/6651774",
  "properties": {
    "amenity": "university",
    "name": "Universitas Katolik Darma Cendika",
    "type": "multipolygon",
    "id": "relation/6651774"
  },
  "geometry": {
    "type": "Point",
    "coordinates": [
      112.7812152,
      -7.2915766
    ]
  }
},
{
  "type": "Feature",
  "id": "relation/6655811",
  "properties": {
    "alt_name": "Kampus Ngagel Universitas Surabaya",
    "amenity": "university",
    "name": "Universitas Surabaya",
    "type": "multipolygon",
    "id": "relation/6655811"
  },
  "geometry": {
    "type": "Point",
    "coordinates": [
      112.7613302,
      -7.2931149
    ]
  }
},
{
  "type": "Feature",
  "id": "relation/6681257",
  "properties": {
    "addr:full": "Jalan Arief Rachman Hakim 103",
    "addr:housenumber": "150",
    "addr:street": "Jl. Arief Rahman Hakim",
    "amenity": "university",
    "name": "Universitas Hang Tuah",
    "operator:type": "private",
    "phone": "031-5945964",
    "type": "multipolygon",
    "website": "www.hangtuah.ac.id",
    "id": "relation/6681257"
  },
  "geometry": {
    "type": "Point",
    "coordinates": [
      112.7935303,
      -7.2933234
    ]
  }
},
{
  "type": "Feature",
  "id": "relation/6690216",
  "properties": {
    "addr:full": "Jalan Cokroaminoto 12 A",
    "amenity": "university",
    "name": "Magister Manajemen Teknologi ITS",
    "operator:type": "government",
    "type": "multipolygon",
    "id": "relation/6690216"
  },
  "geometry": {
    "type": "Point",
    "coordinates": [
      112.7389761,
      -7.2778306
    ]
  }
},
{
  "type": "Feature",
  "id": "relation/6695045",
  "properties": {
    "amenity": "university",
    "name": "Universitas Merdeka Surabaya",
    "type": "multipolygon",
    "id": "relation/6695045"
  },
  "geometry": {
    "type": "Point",
    "coordinates": [
      112.7182466,
      -7.320424
    ]
  }
},
{
  "type": "Feature",
  "id": "relation/6717067",
  "properties": {
    "addr:full": "Jalan Hangtuah No.5",
    "amenity": "university",
    "name": "Kementrian Perhubungan Politeknik Pelayaran Surabaya",
    "operator:type": "government",
    "type": "multipolygon",
    "id": "relation/6717067"
  },
  "geometry": {
    "type": "Point",
    "coordinates": [
      112.7402344,
      -7.2239408
    ]
  }
},
{
  "type": "Feature",
  "id": "relation/6747797",
  "properties": {
    "amenity": "university",
    "name": "Universitas 45 Surabaya",
    "type": "multipolygon",
    "id": "relation/6747797"
  },
  "geometry": {
    "type": "Point",
    "coordinates": [
      112.7209964,
      -7.2909392
    ]
  }
},
{
  "type": "Feature",
  "id": "relation/6755269",
  "properties": {
    "addr:full": "Jalan Parang Kusumo No. 1",
    "amenity": "university",
    "name": "Politeknik Kementrian Kesehatan Surabaya",
    "type": "multipolygon",
    "id": "relation/6755269"
  },
  "geometry": {
    "type": "Point",
    "coordinates": [
      112.7293595,
      -7.2403824
    ]
  }
},
{
  "type": "Feature",
  "id": "relation/6833862",
  "properties": {
    "addr:full": "Jalan Smea 57 Surabaya",
    "amenity": "university",
    "name": "Kampus B Universitas Nahdlatul Ulama Surabaya",
    "operator:type": "private",
    "type": "multipolygon",
    "id": "relation/6833862"
  },
  "geometry": {
    "type": "Point",
    "coordinates": [
      112.7338047,
      -7.3044453
    ]
  }
},
{
  "type": "Feature",
  "id": "relation/6852768",
  "properties": {
    "addr:street": "Jl. Nginden II/137",
    "amenity": "university",
    "description": "salah satu kampus swasta di surabaya",
    "name": "Sekolah Tinggi Ilmu Administrasi Panglima Sudirman",
    "phone": "031-5947528",
    "type": "multipolygon",
    "id": "relation/6852768"
  },
  "geometry": {
    "type": "Point",
    "coordinates": [
      112.766234,
      -7.3006613
    ]
  }
},
{
  "type": "Feature",
  "id": "relation/6861680",
  "properties": {
    "addr:full": "Jalan Arief Rachman Hakim",
    "amenity": "university",
    "name": "Universitas Putra Bangsa",
    "operator:type": "private",
    "type": "multipolygon",
    "id": "relation/6861680"
  },
  "geometry": {
    "type": "Point",
    "coordinates": [
      112.7821609,
      -7.2888726
    ]
  }
},
{
  "type": "Feature",
  "id": "relation/6868040",
  "properties": {
    "addr:full": "Jalan Wonorejo Timur Nomor 16",
    "amenity": "university",
    "name": "Sekolah Tinggi Ilmu Ekonomi Perbanas Kampus II",
    "operator:type": "private",
    "type": "multipolygon",
    "id": "relation/6868040"
  },
  "geometry": {
    "type": "Point",
    "coordinates": [
      112.7953183,
      -7.3091879
    ]
  }
},
{
  "type": "Feature",
  "id": "relation/6868065",
  "properties": {
    "amenity": "university",
    "name": "Sekolah Tinggi Kesenian Wilwatikta",
    "type": "multipolygon",
    "id": "relation/6868065"
  },
  "geometry": {
    "type": "Point",
    "coordinates": [
      112.7776552,
      -7.2947179
    ]
  }
},
{
  "type": "Feature",
  "id": "relation/6873601",
  "properties": {
    "addr:full": "Jalan Prof Dr Moestopo Nomor 8C",
    "amenity": "university",
    "name": "Politeknik Kesehatan Kementerian Kesehatan Surabaya",
    "operator:type": "government",
    "type": "multipolygon",
    "id": "relation/6873601"
  },
  "geometry": {
    "type": "Point",
    "coordinates": [
      112.7602433,
      -7.2663465
    ]
  }
},
{
  "type": "Feature",
  "id": "relation/6884310",
  "properties": {
    "amenity": "university",
    "name": "Kampus A Universitas Airlangga",
    "type": "multipolygon",
    "id": "relation/6884310"
  },
  "geometry": {
    "type": "Point",
    "coordinates": [
      112.7585415,
      -7.2647041
    ]
  }
},
{
  "type": "Feature",
  "id": "relation/6884341",
  "properties": {
    "addr:full": "Jalan Gunung Anyar Indah V",
    "amenity": "university",
    "name": "Universitas Muhammadiyah Sidoarjo",
    "operator:type": "private",
    "type": "multipolygon",
    "id": "relation/6884341"
  },
  "geometry": {
    "type": "Point",
    "coordinates": [
      112.7828975,
      -7.333281
    ]
  }
},
{
  "type": "Feature",
  "id": "relation/6884435",
  "properties": {
    "addr:full": "Jalan Sutprejo no 59",
    "amenity": "university",
    "name": "Universitas Muhammadiyah Surabaya",
    "operator:type": "private",
    "type": "multipolygon",
    "id": "relation/6884435"
  },
  "geometry": {
    "type": "Point",
    "coordinates": [
      112.7887476,
      -7.2603218
    ]
  }
},
{
  "type": "Feature",
  "id": "relation/6884436",
  "properties": {
    "addr:full": "Jalan Sutorejo Prima Utara II No 1",
    "amenity": "university",
    "name": "Universitas Widya Kartika",
    "operator:type": "private",
    "type": "multipolygon",
    "id": "relation/6884436"
  },
  "geometry": {
    "type": "Point",
    "coordinates": [
      112.7943525,
      -7.2605933
    ]
  }
},
{
  "type": "Feature",
  "id": "relation/6886906",
  "properties": {
    "amenity": "university",
    "name": "Politeknik Pelayaran Surabaya",
    "operator:type": "government",
    "type": "multipolygon",
    "id": "relation/6886906"
  },
  "geometry": {
    "type": "Point",
    "coordinates": [
      112.795767,
      -7.3444647
    ]
  }
},
{
  "type": "Feature",
  "id": "relation/6889935",
  "properties": {
    "addr:full": "Jalan Raya Kalirungkut",
    "amenity": "university",
    "name": "Universitas Surabaya",
    "operator:type": "private",
    "type": "multipolygon",
    "id": "relation/6889935"
  },
  "geometry": {
    "type": "Point",
    "coordinates": [
      112.7678581,
      -7.3203969
    ]
  }
},
{
  "type": "Feature",
  "id": "relation/6892161",
  "properties": {
    "amenity": "university",
    "name": "Kampus B Universitas Airlangga",
    "type": "multipolygon",
    "id": "relation/6892161"
  },
  "geometry": {
    "type": "Point",
    "coordinates": [
      112.7588228,
      -7.2722977
    ]
  }
},
{
  "type": "Feature",
  "id": "relation/6892162",
  "properties": {
    "addr:city": "Surabaya",
    "amenity": "university",
    "name": "Fakultas Vokasi",
    "operator:type": "government",
    "type": "multipolygon",
    "id": "relation/6892162"
  },
  "geometry": {
    "type": "Point",
    "coordinates": [
      112.7586208,
      -7.27374
    ]
  }
},
{
  "type": "Feature",
  "id": "relation/6894861",
  "properties": {
    "addr:full": "Jalan Teratai",
    "amenity": "university",
    "name": "FIP Universitas Negeri Surabaya",
    "operator:type": "government",
    "type": "multipolygon",
    "id": "relation/6894861"
  },
  "geometry": {
    "type": "Point",
    "coordinates": [
      112.7558422,
      -7.2557551
    ]
  }
},
{
  "type": "Feature",
  "id": "relation/6911653",
  "properties": {
    "addr:full": "Jalan Raya Rungkut Madya Nomer 1",
    "amenity": "university",
    "name": "Universitas Pembangunan Nasional Veteran Jawa Timur",
    "operator:type": "government",
    "type": "multipolygon",
    "id": "relation/6911653"
  },
  "geometry": {
    "type": "Point",
    "coordinates": [
      112.7888055,
      -7.3336092
    ]
  }
},
{
  "type": "Feature",
  "id": "relation/6924171",
  "properties": {
    "addr:full": "Jalan Siwalankerto Utara II",
    "amenity": "university",
    "name": "BRI Corporate University",
    "operator:type": "private",
    "type": "multipolygon",
    "id": "relation/6924171"
  },
  "geometry": {
    "type": "Point",
    "coordinates": [
      112.732825,
      -7.3335674
    ]
  }
},
{
  "type": "Feature",
  "id": "relation/6927275",
  "properties": {
    "access:roof": "no",
    "amenity": "university",
    "level": "2",
    "name": "Universitas Islam Negeri Sunan Ampel Surabaya",
    "operator:type": "government",
    "type": "multipolygon",
    "id": "relation/6927275"
  },
  "geometry": {
    "type": "Point",
    "coordinates": [
      112.7344217,
      -7.3223128
    ]
  }
},
{
  "type": "Feature",
  "id": "relation/6930332",
  "properties": {
    "addr:full": "Jalan Raya Menganti Kramat Nomer 133",
    "amenity": "university",
    "name": "Universitas Wijaya Putra Kampus Wiyung",
    "operator:type": "private",
    "type": "multipolygon",
    "id": "relation/6930332"
  },
  "geometry": {
    "type": "Point",
    "coordinates": [
      112.7008177,
      -7.3141844
    ]
  }
},
{
  "type": "Feature",
  "id": "relation/6934678",
  "properties": {
    "addr:city": "Surabaya",
    "addr:full": "Jalan Raya Menur",
    "amenity": "university",
    "name": "Diploma Teknik Sipil ITS",
    "operator:type": "government",
    "type": "multipolygon",
    "id": "relation/6934678"
  },
  "geometry": {
    "type": "Point",
    "coordinates": [
      112.7638288,
      -7.2867455
    ]
  }
},
{
  "type": "Feature",
  "id": "relation/6961807",
  "properties": {
    "addr:full": "Jalan Ngagel Dadi III",
    "amenity": "university",
    "name": "Gedung B Universitas Adi Buana",
    "operator:type": "private",
    "type": "multipolygon",
    "id": "relation/6961807"
  },
  "geometry": {
    "type": "Point",
    "coordinates": [
      112.7487662,
      -7.2934269
    ]
  }
},
{
  "type": "Feature",
  "id": "relation/7151132",
  "properties": {
    "addr:city": "Keputih, Sukolilo, Surabaya",
    "addr:postcode": "60229",
    "addr:street": "Jl. Raya ITS",
    "amenity": "university",
    "name": "Institut Teknologi Sepuluh November (ITS)",
    "operator": "Kementerian Riset, Teknologi, dan Pendidikan Tinggi",
    "type": "multipolygon",
    "id": "relation/7151132"
  },
  "geometry": {
    "type": "Point",
    "coordinates": [
      112.7954279,
      -7.283
    ]
  }
},
{
  "type": "Feature",
  "id": "relation/7151146",
  "properties": {
    "amenity": "university",
    "name": "Universitas Katolik Widya Mandala",
    "type": "multipolygon",
    "id": "relation/7151146"
  },
  "geometry": {
    "type": "Point",
    "coordinates": [
      112.7731325,
      -7.259936
    ]
  }
},
{
  "type": "Feature",
  "id": "relation/7151147",
  "properties": {
    "amenity": "university",
    "name": "Universitas Negeri Surabaya",
    "type": "multipolygon",
    "website": "https://www.unesa.ac.id/",
    "id": "relation/7151147"
  },
  "geometry": {
    "type": "Point",
    "coordinates": [
      112.6703569,
      -7.3016931
    ]
  }
},
{
  "type": "Feature",
  "id": "way/265398824",
  "properties": {
    "access:roof": "no",
    "amenity": "university",
    "building": "yes",
    "building:levels": "1",
    "building:roof": "tile",
    "building:structure": "reinforced_masonry",
    "building:walls": "brick",
    "capacity:persons": "300",
    "name": "Laboratorium Dasar",
    "id": "way/265398824"
  },
  "geometry": {
    "type": "Point",
    "coordinates": [
      112.7221538,
      -7.127125
    ]
  }
},
{
  "type": "Feature",
  "id": "way/265398825",
  "properties": {
    "access:roof": "yes",
    "amenity": "university",
    "building": "yes",
    "building:levels": "2",
    "building:roof": "tile",
    "building:structure": "reinforced_masonry",
    "building:walls": "brick",
    "capacity:persons": "300",
    "name": "Ruang Kuliah Bersama A",
    "id": "way/265398825"
  },
  "geometry": {
    "type": "Point",
    "coordinates": [
      112.7232264,
      -7.1297963
    ]
  }
},
{
  "type": "Feature",
  "id": "way/265398830",
  "properties": {
    "access:roof": "no",
    "amenity": "university",
    "building": "yes",
    "building:levels": "1",
    "building:roof": "tile",
    "building:structure": "reinforced_masonry",
    "building:walls": "brick",
    "capacity:persons": "500",
    "name": "Fakultas Hukum",
    "id": "way/265398830"
  },
  "geometry": {
    "type": "Point",
    "coordinates": [
      112.7238353,
      -7.1278926
    ]
  }
},
{
  "type": "Feature",
  "id": "way/265398832",
  "properties": {
    "access:roof": "no",
    "amenity": "university",
    "building": "yes",
    "building:levels": "2",
    "building:roof": "tile",
    "building:structure": "reinforced_masonry",
    "building:walls": "brick",
    "capacity:persons": "200",
    "name": "Gedung fakultas Teknik",
    "id": "way/265398832"
  },
  "geometry": {
    "type": "Point",
    "coordinates": [
      112.7233443,
      -7.1285581
    ]
  }
},
{
  "type": "Feature",
  "id": "way/265398833",
  "properties": {
    "access:roof": "no",
    "amenity": "university",
    "building": "yes",
    "building:levels": "1",
    "building:roof": "tin",
    "building:structure": "unreinforced_masonry",
    "building:walls": "brick",
    "capacity:persons": "3 bus",
    "name": "Parkir Bus Kampus",
    "id": "way/265398833"
  },
  "geometry": {
    "type": "Point",
    "coordinates": [
      112.72367,
      -7.1268647
    ]
  }
},
{
  "type": "Feature",
  "id": "way/265398835",
  "properties": {
    "access:roof": "no",
    "amenity": "university",
    "building": "yes",
    "building:levels": "1",
    "building:roof": "tile",
    "building:structure": "reinforced_masonry",
    "building:walls": "brick",
    "capacity:persons": "100",
    "name": "Fakultas Ilmu Sosial dan Budaya",
    "id": "way/265398835"
  },
  "geometry": {
    "type": "Point",
    "coordinates": [
      112.7227411,
      -7.1267959
    ]
  }
},
{
  "type": "Feature",
  "id": "way/265398836",
  "properties": {
    "access:roof": "no",
    "amenity": "university",
    "building": "yes",
    "building:levels": "1",
    "building:roof": "tile",
    "building:structure": "reinforced_masonry",
    "building:walls": "brick",
    "capacity:persons": "50",
    "name": "sosiologi",
    "id": "way/265398836"
  },
  "geometry": {
    "type": "Point",
    "coordinates": [
      112.7227514,
      -7.1264524
    ]
  }
},
{
  "type": "Feature",
  "id": "way/265398837",
  "properties": {
    "access:roof": "no",
    "amenity": "university",
    "building": "yes",
    "building:levels": "1",
    "building:roof": "tile",
    "building:structure": "reinforced_masonry",
    "building:walls": "brick",
    "capacity:persons": "100",
    "name": "Laboratorium Komputer dan KWU",
    "id": "way/265398837"
  },
  "geometry": {
    "type": "Point",
    "coordinates": [
      112.7219188,
      -7.1274307
    ]
  }
},
{
  "type": "Feature",
  "id": "way/265398840",
  "properties": {
    "access:roof": "no",
    "amenity": "university",
    "building": "yes",
    "building:levels": "2",
    "building:roof": "tile",
    "building:structure": "reinforced_masonry",
    "building:walls": "brick",
    "capacity:persons": "200",
    "name": "auditorium",
    "id": "way/265398840"
  },
  "geometry": {
    "type": "Point",
    "coordinates": [
      112.7226374,
      -7.1259658
    ]
  }
},
{
  "type": "Feature",
  "id": "way/265398841",
  "properties": {
    "access:roof": "no",
    "amenity": "university",
    "building": "yes",
    "building:levels": "1",
    "building:roof": "tile",
    "building:structure": "reinforced_masonry",
    "building:walls": "brick",
    "capacity:persons": "100",
    "name": "Gedung Sekber UKM",
    "id": "way/265398841"
  },
  "geometry": {
    "type": "Point",
    "coordinates": [
      112.7238557,
      -7.126016
    ]
  }
},
{
  "type": "Feature",
  "id": "way/265398842",
  "properties": {
    "access:roof": "no",
    "amenity": "university",
    "building": "yes",
    "building:levels": "1",
    "building:roof": "tile",
    "building:structure": "reinforced_masonry",
    "building:walls": "brick",
    "capacity:persons": "1000",
    "name": "Masjid Nurur Rahman",
    "id": "way/265398842"
  },
  "geometry": {
    "type": "Point",
    "coordinates": [
      112.7234871,
      -7.1264272
    ]
  }
},
{
  "type": "Feature",
  "id": "way/265398843",
  "properties": {
    "access:roof": "no",
    "amenity": "university",
    "building": "yes",
    "building:levels": "1",
    "building:roof": "tile",
    "building:structure": "reinforced_masonry",
    "building:walls": "brick",
    "capacity:persons": "100",
    "name": "fakultas ilmu sosial dan budaya",
    "id": "way/265398843"
  },
  "geometry": {
    "type": "Point",
    "coordinates": [
      112.722786,
      -7.1266291
    ]
  }
},
{
  "type": "Feature",
  "id": "way/265398845",
  "properties": {
    "access:roof": "no",
    "amenity": "university",
    "building": "yes",
    "building:levels": "2",
    "building:roof": "tin",
    "building:structure": "reinforced_masonry",
    "building:walls": "brick",
    "capacity:persons": "500",
    "name": "Fakultas Pertanian dan Ruang Dosen",
    "id": "way/265398845"
  },
  "geometry": {
    "type": "Point",
    "coordinates": [
      112.7224498,
      -7.1274424
    ]
  }
},
{
  "type": "Feature",
  "id": "way/265398846",
  "properties": {
    "access:roof": "no",
    "amenity": "university",
    "building": "yes",
    "building:levels": "1",
    "building:roof": "tile",
    "building:structure": "reinforced_masonry",
    "building:walls": "brick",
    "capacity:persons": "40",
    "name": "Ruang Baca Fakultas ekonomi",
    "id": "way/265398846"
  },
  "geometry": {
    "type": "Point",
    "coordinates": [
      112.7229748,
      -7.1282232
    ]
  }
},
{
  "type": "Feature",
  "id": "way/265398850",
  "properties": {
    "access:roof": "no",
    "amenity": "university",
    "building": "yes",
    "building:levels": "1",
    "building:roof": "tile",
    "building:structure": "reinforced_masonry",
    "building:walls": "brick",
    "capacity:persons": "200",
    "name": "GSC",
    "id": "way/265398850"
  },
  "geometry": {
    "type": "Point",
    "coordinates": [
      112.7236679,
      -7.1273229
    ]
  }
},
{
  "type": "Feature",
  "id": "way/265398851",
  "properties": {
    "access:roof": "no",
    "amenity": "university",
    "building": "yes",
    "building:levels": "1",
    "building:roof": "tile",
    "building:structure": "reinforced_masonry",
    "building:walls": "brick",
    "capacity:persons": "200",
    "name": "Laboratorium Ilmu Kelautan dan TIP",
    "id": "way/265398851"
  },
  "geometry": {
    "type": "Point",
    "coordinates": [
      112.7223195,
      -7.1277106
    ]
  }
},
{
  "type": "Feature",
  "id": "way/265398855",
  "properties": {
    "access:roof": "no",
    "amenity": "university",
    "building": "yes",
    "building:levels": "2",
    "building:roof": "tile",
    "building:structure": "reinforced_masonry",
    "building:walls": "brick",
    "capacity:persons": "1000",
    "name": "Perpustakaan Lama",
    "id": "way/265398855"
  },
  "geometry": {
    "type": "Point",
    "coordinates": [
      112.7231001,
      -7.1272892
    ]
  }
},
{
  "type": "Feature",
  "id": "way/265398877",
  "properties": {
    "access:roof": "no",
    "amenity": "university",
    "building": "yes",
    "building:levels": "4-7",
    "building:roof": "tile",
    "building:structure": "reinforced_masonry",
    "building:walls": "brick",
    "capacity:persons": "1000",
    "name": "Gedung Soft Skill",
    "id": "way/265398877"
  },
  "geometry": {
    "type": "Point",
    "coordinates": [
      112.7235621,
      -7.1259641
    ]
  }
},
{
  "type": "Feature",
  "id": "way/265398882",
  "properties": {
    "access:roof": "no",
    "addr:full": "Jln raya telang",
    "amenity": "university",
    "building": "yes",
    "building:levels": "3",
    "building:roof": "tile",
    "building:structure": "reinforced_masonry",
    "building:walls": "brick",
    "capacity:persons": "450",
    "name": "Ruang Kuliah Bersama B",
    "id": "way/265398882"
  },
  "geometry": {
    "type": "Point",
    "coordinates": [
      112.7237387,
      -7.1298358
    ]
  }
},
{
  "type": "Feature",
  "id": "way/265398885",
  "properties": {
    "access:roof": "no",
    "amenity": "university",
    "building": "yes",
    "building:levels": "3",
    "building:roof": "tile",
    "building:structure": "reinforced_masonry",
    "building:walls": "brick",
    "capacity:persons": "500",
    "name": "Gedung RKB - C",
    "id": "way/265398885"
  },
  "geometry": {
    "type": "Point",
    "coordinates": [
      112.7238724,
      -7.1286417
    ]
  }
},
{
  "type": "Feature",
  "id": "way/279576575",
  "properties": {
    "access:roof": "no",
    "addr:city": "Keputran, Tegal Sari, Surabaya",
    "addr:full": "Jalan Dinoyo",
    "addr:postcode": "60261",
    "addr:street": "Jl. Dinoyo 42-44",
    "amenity": "university",
    "backup_generator": "no",
    "building": "university",
    "building:condition": "good",
    "building:floor": "ceramics",
    "building:levels": "6",
    "building:roof": "tile",
    "building:structure": "confined_masonry",
    "building:walls": "brick",
    "name": "Universitas Katolik Widya Mandala Surabaya",
    "operator:type": "private",
    "id": "way/279576575"
  },
  "geometry": {
    "type": "Point",
    "coordinates": [
      112.7448934,
      -7.2814634
    ]
  }
},
{
  "type": "Feature",
  "id": "way/308341955",
  "properties": {
    "access:roof": "no",
    "amenity": "university",
    "building:roof": "tile",
    "building:structure": "reinforced_masonry",
    "building:walls": "brick",
    "capacity:persons": "50",
    "name": "LPPM",
    "id": "way/308341955"
  },
  "geometry": {
    "type": "Point",
    "coordinates": [
      112.7217759,
      -7.1258674
    ]
  }
},
{
  "type": "Feature",
  "id": "way/344100879",
  "properties": {
    "access:roof": "yes",
    "amenity": "university",
    "backup_generator": "yes",
    "building": "university",
    "building:condition": "good",
    "building:floor": "ceramics",
    "building:levels": "8",
    "building:roof": "concrete",
    "building:structure": "confined_masonry",
    "building:walls": "concrete",
    "capacity:persons": ">500",
    "name": "Universitas Ciputra",
    "operator:type": "private",
    "id": "way/344100879"
  },
  "geometry": {
    "type": "Point",
    "coordinates": [
      112.6313947,
      -7.2856721
    ]
  }
},
{
  "type": "Feature",
  "id": "way/429077898",
  "properties": {
    "addr:street": "Jl. Sulawesi No.1",
    "amenity": "university",
    "building": "university",
    "building:levels": "4",
    "building:roof": "concrete",
    "building:structure": "reinforced_masonry",
    "building:use": "commercial",
    "building:walls": "brick",
    "name": "Universitas Al-Falah",
    "phone": "031-5031401",
    "website": "www.alfalahsby.com",
    "id": "way/429077898"
  },
  "geometry": {
    "type": "Point",
    "coordinates": [
      112.7453299,
      -7.2763193
    ]
  }
},
{
  "type": "Feature",
  "id": "way/429077945",
  "properties": {
    "addr:street": "Jl. Sulawesi No.1",
    "amenity": "university",
    "building": "university",
    "name": "Universitas Al-Falah Surabaya",
    "phone": "031-5031401",
    "website": "www.alfalahsby.com",
    "id": "way/429077945"
  },
  "geometry": {
    "type": "Point",
    "coordinates": [
      112.745692,
      -7.2762601
    ]
  }
},
{
  "type": "Feature",
  "id": "way/447347929",
  "properties": {
    "access:roof": "yes",
    "addr:full": "Jalan Raya Nginden 19 - 23",
    "amenity": "university",
    "backup_generator": "no",
    "building": "university",
    "building:condition": "good",
    "building:floor": "ceramics",
    "building:levels": "2",
    "building:roof": "tile",
    "building:structure": "confined_masonry",
    "building:walls": "concrete",
    "capacity:persons": "100-250",
    "name": "Universitas Kartini Surabaya",
    "operator:type": "private",
    "id": "way/447347929"
  },
  "geometry": {
    "type": "Point",
    "coordinates": [
      112.7624796,
      -7.3007603
    ]
  }
},
{
  "type": "Feature",
  "id": "way/448097625",
  "properties": {
    "access:roof": "no",
    "addr:full": "Jalan Arief Rachman Hakim No.14",
    "amenity": "university",
    "backup_generator": "no",
    "building": "university",
    "building:condition": "good",
    "building:floor": "ceramics",
    "building:levels": "4",
    "building:roof": "tile",
    "building:structure": "confined_masonry",
    "building:walls": "brick",
    "capacity:persons": "250-500",
    "name": "Universitas WR Supratman",
    "operator:type": "private",
    "id": "way/448097625"
  },
  "geometry": {
    "type": "Point",
    "coordinates": [
      112.7840513,
      -7.2902883
    ]
  }
},
{
  "type": "Feature",
  "id": "way/448243907",
  "properties": {
    "access:roof": "no",
    "addr:full": "Jalan Sutprejo no 73-73",
    "amenity": "university",
    "backup_generator": "yes",
    "building": "university",
    "building:condition": "good",
    "building:floor": "ceramics",
    "building:levels": "4",
    "building:roof": "tile",
    "building:structure": "confined_masonry",
    "building:walls": "concrete",
    "capacity:persons": "250-500",
    "name": "Gedung Dakwah Universitas Muhammadiyah Surabaya",
    "operator:type": "private",
    "id": "way/448243907"
  },
  "geometry": {
    "type": "Point",
    "coordinates": [
      112.7895429,
      -7.2605847
    ]
  }
},
{
  "type": "Feature",
  "id": "way/448480234",
  "properties": {
    "addr:street": "Jl. Mawar 31 – 33",
    "amenity": "university",
    "building": "university",
    "description": "salah satu kampus swasta di surabaya",
    "name": "Sekolah Tinggi Teknologi Dan Kejuruan (STIK)",
    "phone": "031-5342917",
    "id": "way/448480234"
  },
  "geometry": {
    "type": "Point",
    "coordinates": [
      112.7356161,
      -7.2692371
    ]
  }
},
{
  "type": "Feature",
  "id": "way/449322778",
  "properties": {
    "addr:street": "Jl. Raya Nginden 19-23",
    "amenity": "university",
    "building": "university",
    "description": "salah satu kampus swasta di surabaya",
    "name": "Universitas Kartini",
    "phone": "031-5944462",
    "id": "way/449322778"
  },
  "geometry": {
    "type": "Point",
    "coordinates": [
      112.7624207,
      -7.2999412
    ]
  }
},
{
  "type": "Feature",
  "id": "way/449624586",
  "properties": {
    "access:roof": "no",
    "addr:full": "jalan mayjen prof.Dr.Moestopo no 4",
    "amenity": "university",
    "backup_generator": "no",
    "building": "university",
    "building:condition": "good",
    "building:floor": "ceramics",
    "building:levels": "1",
    "building:roof": "tile",
    "building:structure": "confined_masonry",
    "building:walls": "brick",
    "capacity:persons": ">500",
    "name": "Pusat Bahasa Mandarin UNESA",
    "operator:type": "government",
    "id": "way/449624586"
  },
  "geometry": {
    "type": "Point",
    "coordinates": [
      112.7555967,
      -7.2659273
    ]
  }
},
{
  "type": "Feature",
  "id": "way/450537998",
  "properties": {
    "addr:street": "Jl. Menur No.2",
    "amenity": "university",
    "building": "university",
    "description": "salah satu kampus swasta di surabaya",
    "name": "Sekolah Tinggi Ilmu Ekonomi Pariwisata Satya Widya",
    "phone": "031-5030975",
    "id": "way/450537998"
  },
  "geometry": {
    "type": "Point",
    "coordinates": [
      112.7620187,
      -7.2801799
    ]
  }
},
{
  "type": "Feature",
  "id": "way/451295392",
  "properties": {
    "access:roof": "no",
    "addr:full": "Jalan Urip Sumoharjo",
    "amenity": "university",
    "backup_generator": "yes",
    "building": "university",
    "building:condition": "good",
    "building:floor": "ceramics",
    "building:levels": "2",
    "building:roof": "tile",
    "building:structure": "confined_masonry",
    "building:walls": "brick",
    "capacity:persons": "250-500",
    "name": "STIE Urip Sumoharjo",
    "operator:type": "private",
    "id": "way/451295392"
  },
  "geometry": {
    "type": "Point",
    "coordinates": [
      112.7423389,
      -7.2738947
    ]
  }
},
{
  "type": "Feature",
  "id": "way/451656294",
  "properties": {
    "access:roof": "no",
    "addr:full": "jalan raya kupang",
    "amenity": "university",
    "building": "university",
    "building:condition": "good",
    "building:levels": "2",
    "building:roof": "tile",
    "building:structure": "confined_masonry",
    "building:walls": "brick",
    "capacity:persons": "100-250",
    "name": "IMBT School Management",
    "operator:type": "private",
    "id": "way/451656294"
  },
  "geometry": {
    "type": "Point",
    "coordinates": [
      112.7050525,
      -7.2767222
    ]
  }
},
{
  "type": "Feature",
  "id": "way/451664230",
  "properties": {
    "access:roof": "no",
    "addr:full": "Jalan Dukuh Kupang XXV",
    "amenity": "university",
    "backup_generator": "yes",
    "building": "university",
    "building:condition": "good",
    "building:floor": "ceramics",
    "building:levels": "2",
    "building:roof": "tile",
    "building:structure": "confined_masonry",
    "building:walls": "brick",
    "capacity:persons": "250-500",
    "name": "Fakultas Kedokteran Hewan Universitas Wijaya Kusuma",
    "operator:type": "private",
    "id": "way/451664230"
  },
  "geometry": {
    "type": "Point",
    "coordinates": [
      112.7109452,
      -7.2820483
    ]
  }
},
{
  "type": "Feature",
  "id": "way/451664239",
  "properties": {
    "access:roof": "no",
    "addr:full": "Jalan Dukuh Kupang XXV No. 54",
    "amenity": "university",
    "backup_generator": "yes",
    "building": "university",
    "building:condition": "good",
    "building:floor": "ceramics",
    "building:levels": "7",
    "building:roof": "tile",
    "building:structure": "confined_masonry",
    "building:walls": "brick",
    "capacity:persons": ">500",
    "name": "Fakultas Kedokteran Universitas Wijaya Kusuma",
    "operator:type": "private",
    "id": "way/451664239"
  },
  "geometry": {
    "type": "Point",
    "coordinates": [
      112.7108637,
      -7.282658
    ]
  }
},
{
  "type": "Feature",
  "id": "way/451664278",
  "properties": {
    "access:roof": "no",
    "addr:full": "Jalan Dukuh Kupang XXV No. 54",
    "amenity": "university",
    "backup_generator": "no",
    "building": "university",
    "building:condition": "good",
    "building:floor": "ceramics",
    "building:levels": "2",
    "building:roof": "tile",
    "building:structure": "confined_masonry",
    "building:walls": "brick",
    "capacity:persons": "100-250",
    "name": "Fakultas Pertanian UWK",
    "operator:type": "private",
    "id": "way/451664278"
  },
  "geometry": {
    "type": "Point",
    "coordinates": [
      112.7105517,
      -7.2824338
    ]
  }
},
{
  "type": "Feature",
  "id": "way/451670387",
  "properties": {
    "access:roof": "no",
    "addr:full": "Jalan Dukuh Kupang XXV",
    "amenity": "university",
    "backup_generator": "yes",
    "building": "university",
    "building:condition": "good",
    "building:floor": "ceramics",
    "building:levels": "2",
    "building:roof": "tile",
    "building:structure": "confined_masonry",
    "building:walls": "concrete",
    "capacity:persons": "250-500",
    "description": "salah satu kampus swasta di surabaya",
    "name": "Universitas Wijaya Kusuma",
    "operator:type": "private",
    "phone": "031-5677477",
    "website": "http://www.wijayakusumasby.ac.id",
    "id": "way/451670387"
  },
  "geometry": {
    "type": "Point",
    "coordinates": [
      112.7121312,
      -7.2822041
    ]
  }
},
{
  "type": "Feature",
  "id": "way/452033377",
  "properties": {
    "access:roof": "yes",
    "addr:full": "Jalan Jambi 12 - 18",
    "amenity": "university",
    "backup_generator": "yes",
    "building": "university",
    "building:floor": "ceramics",
    "building:levels": "7",
    "building:roof": "tile",
    "building:structure": "confined_masonry",
    "building:walls": "brick",
    "capacity:persons": "250-500",
    "name": "Stikes Katolik St. Vincentius A Paulo ( RKZ )",
    "operator:type": "private",
    "id": "way/452033377"
  },
  "geometry": {
    "type": "Point",
    "coordinates": [
      112.7347295,
      -7.2929151
    ]
  }
},
{
  "type": "Feature",
  "id": "way/453446719",
  "properties": {
    "addr:street": "Jl. Dukuh Kupang Barat I/216-218",
    "amenity": "university",
    "building": "university",
    "description": "salah satu kampus swasta di surabaya",
    "name": "Universitas Yos Soedarso",
    "phone": "031-5689806",
    "website": "www.uniyos.ac.id",
    "id": "way/453446719"
  },
  "geometry": {
    "type": "Point",
    "coordinates": [
      112.7088054,
      -7.2877459
    ]
  }
},
{
  "type": "Feature",
  "id": "way/453446786",
  "properties": {
    "access:roof": "no",
    "addr:full": "Jalan Mayjend Sungkono",
    "amenity": "university",
    "backup_generator": "yes",
    "building": "university",
    "building:condition": "good",
    "building:floor": "ceramics",
    "building:levels": "2",
    "building:roof": "concrete",
    "building:structure": "confined_masonry",
    "building:walls": "brick",
    "capacity:persons": "100-250",
    "name": "The Sages Institute",
    "operator:type": "private",
    "id": "way/453446786"
  },
  "geometry": {
    "type": "Point",
    "coordinates": [
      112.708297,
      -7.2883182
    ]
  }
},
{
  "type": "Feature",
  "id": "way/453936574",
  "properties": {
    "access:roof": "no",
    "addr:full": "Jalan Dukuh Menanggal XII",
    "amenity": "university",
    "backup_generator": "no",
    "building": "university",
    "building:condition": "good",
    "building:floor": "ceramics",
    "building:levels": "4",
    "building:roof": "tile",
    "building:structure": "confined_masonry",
    "building:walls": "concrete",
    "capacity:persons": "100-250",
    "name": "Universitas PGRI Adibuana",
    "operator:type": "private",
    "id": "way/453936574"
  },
  "geometry": {
    "type": "Point",
    "coordinates": [
      112.7225223,
      -7.3442156
    ]
  }
},
{
  "type": "Feature",
  "id": "way/455039563",
  "properties": {
    "addr:full": "Jalan Patimura",
    "amenity": "university",
    "building": "university",
    "building:condition": "good",
    "building:floor": "ceramics",
    "building:levels": "6",
    "building:roof": "asbestos",
    "building:structure": "confined_masonry",
    "building:walls": "brick",
    "capacity:persons": "250-500",
    "name": "Institute IKAIDO",
    "operator:type": "private",
    "id": "way/455039563"
  },
  "geometry": {
    "type": "Point",
    "coordinates": [
      112.6977828,
      -7.2750761
    ]
  }
},
{
  "type": "Feature",
  "id": "way/456524776",
  "properties": {
    "access:roof": "no",
    "addr:full": "Jalan Raya Kendangsari 109",
    "amenity": "university",
    "backup_generator": "no",
    "building": "university",
    "building:condition": "good",
    "building:floor": "ceramics",
    "building:levels": "2",
    "building:roof": "tile",
    "building:structure": "confined_masonry",
    "building:walls": "brick",
    "capacity:persons": "<50",
    "name": "Politeknik Surabaya",
    "operator:type": "private",
    "id": "way/456524776"
  },
  "geometry": {
    "type": "Point",
    "coordinates": [
      112.7475215,
      -7.3207701
    ]
  }
},
{
  "type": "Feature",
  "id": "way/457123354",
  "properties": {
    "access:roof": "no",
    "addr:full": "Jalam Parang Kusumo",
    "amenity": "university",
    "backup_generator": "no",
    "building": "university",
    "building:condition": "good",
    "building:floor": "ceramics",
    "building:levels": "2",
    "building:roof": "asbestos",
    "building:structure": "confined_masonry",
    "building:walls": "brick",
    "capacity:persons": "100-250",
    "name": "Akademi Akupuntur Surabaya",
    "operator:type": "private",
    "id": "way/457123354"
  },
  "geometry": {
    "type": "Point",
    "coordinates": [
      112.7295592,
      -7.2397043
    ]
  }
},
{
  "type": "Feature",
  "id": "way/459976942",
  "properties": {
    "access:roof": "no",
    "addr:full": "Jalan Dukuh Kupang Barat I No 216-218",
    "amenity": "university",
    "backup_generator": "no",
    "building": "university",
    "building:condition": "good",
    "building:floor": "ceramics",
    "building:levels": "2",
    "building:roof": "tile",
    "building:structure": "confined_masonry",
    "building:walls": "brick",
    "capacity:persons": "100-250",
    "name": "Universitas Yos Sudarso",
    "operator:type": "private",
    "id": "way/459976942"
  },
  "geometry": {
    "type": "Point",
    "coordinates": [
      112.709335,
      -7.2853665
    ]
  }
},
{
  "type": "Feature",
  "id": "way/467392300",
  "properties": {
    "access:roof": "yes",
    "amenity": "university",
    "building": "university",
    "building:condition": "good",
    "building:levels": "9",
    "building:roof": "concrete",
    "building:structure": "confined_masonry",
    "building:walls": "concrete",
    "capacity:persons": ">500",
    "name": "Universitas Nadhlatul Ulama surabaya",
    "id": "way/467392300"
  },
  "geometry": {
    "type": "Point",
    "coordinates": [
      112.7388515,
      -7.3228679
    ]
  }
},
{
  "type": "Feature",
  "id": "way/469290623",
  "properties": {
    "addr:full": "Jalan RayaJemursari",
    "amenity": "university",
    "backup_generator": "no",
    "building": "university",
    "building:condition": "good",
    "building:levels": "2",
    "building:roof": "tile",
    "building:structure": "confined_masonry",
    "building:walls": "brick",
    "capacity:persons": "250-500",
    "name": "Universitas Nadhlatul Ulama Surabaya Kampus B",
    "id": "way/469290623"
  },
  "geometry": {
    "type": "Point",
    "coordinates": [
      112.7395886,
      -7.3222493
    ]
  }
},
{
  "type": "Feature",
  "id": "node/1555143638",
  "properties": {
    "addr:street": "Jalan Somelowaru No 45",
    "amenity": "university",
    "description": "Salah satu universitas terkenal didaerah Surabaya yang memiliki visit until mewujudkan PT unggulan.",
    "name": "Universitas 17 Augustus Surabaya",
    "phone": "03134560101",
    "website": "http://untag-sby.ac.id",
    "id": "node/1555143638"
  },
  "geometry": {
    "type": "Point",
    "coordinates": [
      112.7664614,
      -7.2980387
    ]
  }
},
{
  "type": "Feature",
  "id": "node/1582488438",
  "properties": {
    "addr:street": "Jl. Semolowaru 84 Surabaya",
    "amenity": "university",
    "description": "salah satu kampus swasta di surabaya",
    "name": "Universitas Dr.Soetomo",
    "phone": "031-5924452",
    "website": "http://www.unitomo.ac.id",
    "id": "node/1582488438"
  },
  "geometry": {
    "type": "Point",
    "coordinates": [
      112.7657299,
      -7.2987533
    ]
  }
},
{
  "type": "Feature",
  "id": "node/1582736253",
  "properties": {
    "addr:street": "Jl. Brigjen Katamso II Waru",
    "amenity": "university",
    "description": "salah satu kampus swasta di surabaya",
    "name": "Universitas Sunan Giri",
    "phone": "031-8532477",
    "id": "node/1582736253"
  },
  "geometry": {
    "type": "Point",
    "coordinates": [
      112.7466992,
      -7.346253
    ]
  }
},
{
  "type": "Feature",
  "id": "node/1583612462",
  "properties": {
    "addr:street": "Jl. Arief Rachman Hakim 51",
    "amenity": "university",
    "description": "salah satu kampus swasta di surabaya",
    "name": "Universitas Narotama",
    "phone": "031-5946404",
    "website": "http://www.narotama.ac.id",
    "id": "node/1583612462"
  },
  "geometry": {
    "type": "Point",
    "coordinates": [
      112.7764714,
      -7.2882596
    ]
  }
},
{
  "type": "Feature",
  "id": "node/1583642061",
  "properties": {
    "addr:street": "Jl. Jend. A. Yani 114 – Wonocolo",
    "amenity": "university",
    "description": "salah satu kampus swasta di surabaya",
    "name": "Universitas Bhayangkara",
    "phone": "031-8285602",
    "id": "node/1583642061"
  },
  "geometry": {
    "type": "Point",
    "coordinates": [
      112.7314961,
      -7.324321
    ]
  }
},
{
  "type": "Feature",
  "id": "node/1583774356",
  "properties": {
    "addr:street": "Jln. Kalijudan No 34-B",
    "amenity": "university",
    "description": "salah satu kampus swasta di surabaya",
    "name": "Universitas Tritunggal",
    "phone": "031-3810792",
    "website": "universitastritunggalsurabaya.com",
    "id": "node/1583774356"
  },
  "geometry": {
    "type": "Point",
    "coordinates": [
      112.7778029,
      -7.2553248
    ]
  }
},
{
  "type": "Feature",
  "id": "node/1583809008",
  "properties": {
    "addr:city": "Sukolio, East Java, Surabaya",
    "addr:housenumber": "100",
    "addr:postcode": "60117",
    "addr:street": "Jl. Arief Rachman Hakim",
    "amenity": "university",
    "description": "salah satu kampus swasta di surabaya",
    "name": "Institut Teknologi Adhi Tama Surabaya",
    "phone": "031-5946331",
    "website": "www.itats.ac.id",
    "id": "node/1583809008"
  },
  "geometry": {
    "type": "Point",
    "coordinates": [
      112.7792069,
      -7.290803
    ]
  }
},
{
  "type": "Feature",
  "id": "node/1583812543",
  "properties": {
    "addr:street": "Jl. Ketintang No.147",
    "amenity": "university",
    "description": "salah satu kampus swasta di surabaya",
    "name": "IKIP Widya Dharma",
    "phone": "031-8288141",
    "id": "node/1583812543"
  },
  "geometry": {
    "type": "Point",
    "coordinates": [
      112.7266295,
      -7.3156467
    ]
  }
},
{
  "type": "Feature",
  "id": "node/1583823671",
  "properties": {
    "addr:street": "Jl. Menur Pumpungan No. 30",
    "amenity": "university",
    "description": "salah satu kampus swasta di surabaya",
    "name": "Sekolah Tinggi Ilmu Ekonomi Indonesia",
    "phone": "031-5947840",
    "website": "www.stiesiaedu.com",
    "id": "node/1583823671"
  },
  "geometry": {
    "type": "Point",
    "coordinates": [
      112.7635547,
      -7.2930264
    ]
  }
},
{
  "type": "Feature",
  "id": "node/1583828318",
  "properties": {
    "addr:street": "Jl. Nginden Semolo No. 34-36",
    "amenity": "university",
    "description": "salah satu kampus swasta di surabaya",
    "name": "Sekolah Tinggi Ilmu Ekonomi Perbanas",
    "phone": "031-5938151",
    "website": "www.perbanas.ac.id",
    "id": "node/1583828318"
  },
  "geometry": {
    "type": "Point",
    "coordinates": [
      112.7642977,
      -7.3000873
    ]
  }
},
{
  "type": "Feature",
  "id": "node/1583840759",
  "properties": {
    "addr:street": "Jl. Klampis Anom II",
    "amenity": "university",
    "description": "salah satu kampus swasta di surabaya",
    "name": "Sekolah Tinggi Kesenian Wilwatikta",
    "phone": "031-5949945",
    "id": "node/1583840759"
  },
  "geometry": {
    "type": "Point",
    "coordinates": [
      112.7773392,
      -7.2913084
    ]
  }
},
{
  "type": "Feature",
  "id": "node/1583856426",
  "properties": {
    "addr:street": "Jl. A.Yani No.88 Gedung Graha Pena Lantai X",
    "amenity": "university",
    "description": "salah satu kampus swasta di surabaya",
    "name": "Sekolah Tinggi Ilmu Ekonomi Mahardhika",
    "phone": "031-8294629",
    "website": "www.stiemahardhika.ac.id",
    "id": "node/1583856426"
  },
  "geometry": {
    "type": "Point",
    "coordinates": [
      112.7314842,
      -7.3190857
    ]
  }
},
{
  "type": "Feature",
  "id": "node/1583877145",
  "properties": {
    "addr:street": "Jl. Menur Pumpungan III/29",
    "amenity": "university",
    "description": "salah satu kampus swasta di surabaya",
    "name": "Sekolah Tinggi Ilmu Ekonomi Artha Bodhi Iswara",
    "phone": "031-5938850",
    "website": "www.stie-abi.ac.id",
    "id": "node/1583877145"
  },
  "geometry": {
    "type": "Point",
    "coordinates": [
      112.7627683,
      -7.2963291
    ]
  }
},
{
  "type": "Feature",
  "id": "node/1583947297",
  "properties": {
    "addr:street": "Jl. Nginden Intan Timur No.1",
    "amenity": "university",
    "description": "salah satu kampus swasta di surabaya",
    "name": "Sekolah Tinggi Ilmu Komunikasi Almamater Wartawan",
    "phone": "031-5922018",
    "website": "www.stikosa-aws.ac.id",
    "id": "node/1583947297"
  },
  "geometry": {
    "type": "Point",
    "coordinates": [
      112.7709217,
      -7.3058395
    ]
  }
},
{
  "type": "Feature",
  "id": "node/1584019887",
  "properties": {
    "addr:street": "Jl.Bendul Merisi Rejo Aman II/23",
    "amenity": "university",
    "description": "salah satu kampus swasta di surabaya",
    "name": "Sekolah Tinggi Bahasa Dan Sastra Asing (STIBA) Satya Widya",
    "phone": "031-8494369",
    "website": "www.stiba-satyawidya.ac.id",
    "id": "node/1584019887"
  },
  "geometry": {
    "type": "Point",
    "coordinates": [
      112.7453087,
      -7.3054341
    ]
  }
},
{
  "type": "Feature",
  "id": "node/1584052512",
  "properties": {
    "addr:street": "Jl. Klampis Anom II/2",
    "amenity": "university",
    "description": "salah satu kampus swasta di surabaya",
    "name": "Sekolah Tinggi Ilmu Ekonomi Wilwatika",
    "phone": "031-5949643",
    "id": "node/1584052512"
  },
  "geometry": {
    "type": "Point",
    "coordinates": [
      112.7773236,
      -7.2929487
    ]
  }
},
{
  "type": "Feature",
  "id": "node/1584071694",
  "properties": {
    "addr:street": "Jl. Gubeng Pojok 15",
    "amenity": "university",
    "description": "salah satu kampus swasta di surabaya",
    "name": "Sekolah Tinggi Ilmu Ekonomi IEU",
    "phone": "031-5450051",
    "website": "ieu.ac.id",
    "id": "node/1584071694"
  },
  "geometry": {
    "type": "Point",
    "coordinates": [
      112.7512854,
      -7.2650668
    ]
  }
},
{
  "type": "Feature",
  "id": "node/1584101507",
  "properties": {
    "addr:street": "J l . Basuki Rachmad 129-137",
    "amenity": "university",
    "description": "salah satu kampus swasta di surabaya",
    "name": "Sekolah Tinggi Ilmu Ekonomi Prima Visi",
    "phone": "031-5316770",
    "website": "www.stieprimavisi.ac.id",
    "id": "node/1584101507"
  },
  "geometry": {
    "type": "Point",
    "coordinates": [
      112.7407067,
      -7.2672997
    ]
  }
},
{
  "type": "Feature",
  "id": "node/1584119406",
  "properties": {
    "addr:street": "Jl. Klampis Jaya 102-120 Lt. III",
    "amenity": "university",
    "description": "salah satu politeknik swasta di surabaya",
    "name": "Politeknik Surabaya",
    "phone": "031-5911192",
    "website": "www.polteksurabaya.ac.id",
    "id": "node/1584119406"
  },
  "geometry": {
    "type": "Point",
    "coordinates": [
      112.7761659,
      -7.2816671
    ]
  }
}
]
}
