{
"type": "FeatureCollection",
"features": [
{
  "type": "Feature",
  "id": "way/122398955",
  "properties": {
    "amenity": "hospital",
    "emergency": "yes",
    "name": "Hopital Mohammed V",
    "id": "way/122398955"
  },
  "geometry": {
    "type": "Point",
    "coordinates": [
      -5.8282592,
      35.7781906
    ]
  }
},
{
  "type": "Feature",
  "id": "way/411183375",
  "properties": {
    "amenity": "hospital",
    "id": "way/411183375"
  },
  "geometry": {
    "type": "Point",
    "coordinates": [
      -5.9218464,
      35.6832423
    ]
  }
},
{
  "type": "Feature",
  "id": "way/475665966",
  "properties": {
    "amenity": "hospital",
    "name": "Hôpital Mohammed VI",
    "id": "way/475665966"
  },
  "geometry": {
    "type": "Point",
    "coordinates": [
      -5.828373,
      35.7509463
    ]
  }
},
{
  "type": "Feature",
  "id": "node/616475031",
  "properties": {
    "amenity": "hospital",
    "name": "Hopital Italien",
    "id": "node/616475031"
  },
  "geometry": {
    "type": "Point",
    "coordinates": [
      -5.8212234,
      35.7844639
    ]
  }
},
{
  "type": "Feature",
  "id": "node/1892224172",
  "properties": {
    "amenity": "hospital",
    "name": "Croissant Rouge",
    "id": "node/1892224172"
  },
  "geometry": {
    "type": "Point",
    "coordinates": [
      -5.8098756,
      35.7777611
    ]
  }
},
{
  "type": "Feature",
  "id": "node/2849460569",
  "properties": {
    "alt_name": "Sbitar Spanyol",
    "amenity": "hospital",
    "name": "Hopital Español",
    "id": "node/2849460569"
  },
  "geometry": {
    "type": "Point",
    "coordinates": [
      -5.821808,
      35.7780655
    ]
  }
},
{
  "type": "Feature",
  "id": "node/3447148812",
  "properties": {
    "amenity": "hospital",
    "name": "hôpital al kortobi",
    "id": "node/3447148812"
  },
  "geometry": {
    "type": "Point",
    "coordinates": [
      -5.8183775,
      35.7895028
    ]
  }
}
]
}
