{
  "version": 0.6,
  "generator": "Overpass API",
  "osm3s": {
    "timestamp_osm_base": "2017-05-15T14:33:18Z",
    "copyright": "The data included in this document is from www.openstreetmap.org. The data is made available under ODbL."
  },
  "elements": [

{
  "type": "node",
  "id": 4135367700,
  "lat": 6.5867455,
  "lon": 2.5381807,
  "tags": {
    "amenity": "marketplace"
  }
},
{
  "type": "node",
  "id": 4172381291,
  "lat": 6.3745678,
  "lon": 2.4598064,
  "tags": {
    "amenity": "marketplace",
    "name": "Marché de N'vènamedé"
  }
},
{
  "type": "node",
  "id": 4207422049,
  "lat": 6.3756425,
  "lon": 2.5074534,
  "tags": {
    "amenity": "marketplace",
    "name": "Marché Sekandji"
  }
},
{
  "type": "node",
  "id": 4254736032,
  "lat": 6.3708036,
  "lon": 2.4615510,
  "tags": {
    "amenity": "marketplace",
    "name": "Marché PK3",
    "operator": "SOGEMA"
  }
},
{
  "type": "node",
  "id": 4323430692,
  "lat": 6.4564482,
  "lon": 2.5440886,
  "tags": {
    "amenity": "marketplace",
    "name": "KINTOCOME"
  }
},
{
  "type": "node",
  "id": 4326288469,
  "lat": 6.5815083,
  "lon": 2.5051175,
  "tags": {
    "amenity": "marketplace",
    "name": "Marché Zoukpa"
  }
},
{
  "type": "node",
  "id": 4327137789,
  "lat": 6.5869161,
  "lon": 2.5030180,
  "tags": {
    "amenity": "marketplace",
    "name": "Marché Hètin Sota"
  }
},
{
  "type": "node",
  "id": 4341923948,
  "lat": 6.5826901,
  "lon": 2.5014881,
  "tags": {
    "amenity": "marketplace",
    "name": "Marché public de Glahounsa",
    "source": "gps,survey"
  }
},
{
  "type": "node",
  "id": 4431338551,
  "lat": 6.4711879,
  "lon": 2.6269016,
  "tags": {
    "amenity": "marketplace",
    "name": "Marché central"
  }
},
{
  "type": "way",
  "id": 377325432,
  "center": {
    "lat": 6.3953867,
    "lon": 2.5397009
  },
  "nodes": [
    3807016857,
    3807016856,
    3807016855,
    3807016853,
    3807016852,
    3807016850,
    3807016849,
    3807016854,
    3807016862,
    3807016868,
    3807016876,
    3807016881,
    3807016880,
    3807016879,
    3807016878,
    3807016873,
    3807016857
  ],
  "tags": {
    "amenity": "marketplace",
    "name": "Marché Houéssi",
    "operator": "Marché Houéssi"
  }
},
{
  "type": "way",
  "id": 398778218,
  "center": {
    "lat": 6.4730288,
    "lon": 2.6089867
  },
  "nodes": [
    4015184561,
    4015184562,
    4015184563,
    4015184564,
    4015184565,
    4015184566,
    4015184561
  ],
  "tags": {
    "amenity": "marketplace",
    "building": "yes"
  }
},
{
  "type": "way",
  "id": 256270415,
  "center": {
    "lat": 6.5064313,
    "lon": 2.6109511
  },
  "nodes": [
    2619439032,
    3899077080,
    3242555988,
    3911027508,
    3911027673,
    2619439036,
    2619439038,
    2619439032
  ],
  "tags": {
    "amenity": "marketplace",
    "landuse": "commercial",
    "name": "Ouando",
    "source": "Bing"
  }
},
{
  "type": "way",
  "id": 356471210,
  "center": {
    "lat": 6.5020843,
    "lon": 2.6459074
  },
  "nodes": [
    3619074089,
    3619074088,
    3619074090,
    3619074091,
    3619074089
  ],
  "tags": {
    "amenity": "marketplace",
    "landuse": "commercial",
    "name": "Marché"
  }
},
{
  "type": "way",
  "id": 433786089,
  "center": {
    "lat": 6.5856907,
    "lon": 2.5501819
  },
  "nodes": [
    4322816090,
    4324532223,
    4322815683,
    4322815681,
    4322815680,
    4322815679,
    4322815678,
    4322815677,
    4322815686,
    4322815688,
    4322815687,
    4322815684,
    4322815685,
    4322816089,
    4322816091,
    4322816090
  ],
  "tags": {
    "amenity": "marketplace",
    "name": "Marché"
  }
},
{
  "type": "way",
  "id": 256268159,
  "center": {
    "lat": 6.5316559,
    "lon": 2.6641288
  },
  "nodes": [
    2619415722,
    3913804188,
    2619415723,
    3913804158,
    3242556019,
    2619415724,
    3242556017,
    2619415725,
    2619415726,
    2619415727,
    3242556021,
    2619415722
  ],
  "tags": {
    "amenity": "marketplace",
    "landuse": "commercial",
    "name": "Marché d'Adjerra"
  }
},
{
  "type": "way",
  "id": 364745356,
  "center": {
    "lat": 6.5511246,
    "lon": 2.6539135
  },
  "nodes": [
    3687923786,
    3687923785,
    3687923783,
    3687923784,
    3687923786
  ],
  "tags": {
    "addr:city": "Avrankou",
    "amenity": "marketplace",
    "fixme": "check",
    "name": "Marché central d'Avrankou",
    "source": "bing",
    "source:date": "12/16/2013"
  }
},
{
  "type": "way",
  "id": 377325432,
  "nodes": [
    3807016857,
    3807016856,
    3807016855,
    3807016853,
    3807016852,
    3807016850,
    3807016849,
    3807016854,
    3807016862,
    3807016868,
    3807016876,
    3807016881,
    3807016880,
    3807016879,
    3807016878,
    3807016873,
    3807016857
  ],
  "tags": {
    "amenity": "marketplace",
    "name": "Marché Houéssi",
    "operator": "Marché Houéssi"
  }
},
{
  "type": "way",
  "id": 398778218,
  "nodes": [
    4015184561,
    4015184562,
    4015184563,
    4015184564,
    4015184565,
    4015184566,
    4015184561
  ],
  "tags": {
    "amenity": "marketplace",
    "building": "yes"
  }
},
{
  "type": "way",
  "id": 256270415,
  "nodes": [
    2619439032,
    3899077080,
    3242555988,
    3911027508,
    3911027673,
    2619439036,
    2619439038,
    2619439032
  ],
  "tags": {
    "amenity": "marketplace",
    "landuse": "commercial",
    "name": "Ouando",
    "source": "Bing"
  }
},
{
  "type": "way",
  "id": 356471210,
  "nodes": [
    3619074089,
    3619074088,
    3619074090,
    3619074091,
    3619074089
  ],
  "tags": {
    "amenity": "marketplace",
    "landuse": "commercial",
    "name": "Marché"
  }
},
{
  "type": "way",
  "id": 433786089,
  "nodes": [
    4322816090,
    4324532223,
    4322815683,
    4322815681,
    4322815680,
    4322815679,
    4322815678,
    4322815677,
    4322815686,
    4322815688,
    4322815687,
    4322815684,
    4322815685,
    4322816089,
    4322816091,
    4322816090
  ],
  "tags": {
    "amenity": "marketplace",
    "name": "Marché"
  }
},
{
  "type": "way",
  "id": 256268159,
  "nodes": [
    2619415722,
    3913804188,
    2619415723,
    3913804158,
    3242556019,
    2619415724,
    3242556017,
    2619415725,
    2619415726,
    2619415727,
    3242556021,
    2619415722
  ],
  "tags": {
    "amenity": "marketplace",
    "landuse": "commercial",
    "name": "Marché d'Adjerra"
  }
},
{
  "type": "way",
  "id": 364745356,
  "nodes": [
    3687923786,
    3687923785,
    3687923783,
    3687923784,
    3687923786
  ],
  "tags": {
    "addr:city": "Avrankou",
    "amenity": "marketplace",
    "fixme": "check",
    "name": "Marché central d'Avrankou",
    "source": "bing",
    "source:date": "12/16/2013"
  }
}

  ]
}
