{
  "version": 0.6,
  "generator": "Overpass API",
  "osm3s": {
    "timestamp_osm_base": "2017-05-15T14:33:18Z",
    "copyright": "The data included in this document is from www.openstreetmap.org. The data is made available under ODbL."
  },
  "elements": [

{
  "type": "node",
  "id": 1102519112,
  "lat": 6.3671433,
  "lon": 2.4595376,
  "tags": {
    "amenity": "townhall",
    "name": "Mairie de Cotonou"
  }
},
{
  "type": "node",
  "id": 3636317141,
  "lat": 6.5226053,
  "lon": 2.6676140,
  "tags": {
    "amenity": "townhall",
    "name": "Mairie d'Adjarra"
  }
},
{
  "type": "node",
  "id": 4212421285,
  "lat": 6.3818969,
  "lon": 2.6037637,
  "tags": {
    "amenity": "townhall",
    "name": "Mairie Seme Podji"
  }
},
{
  "type": "way",
  "id": 235099160,
  "center": {
    "lat": 6.3658853,
    "lon": 2.4552067
  },
  "nodes": [
    2431957512,
    2431957510,
    2431957509,
    2431957511,
    2431957512
  ],
  "tags": {
    "amenity": "townhall",
    "building": "yes",
    "man_made": "tower",
    "name": "Ministère de la Santé",
    "office": "administrative",
    "source": "Bing;survey"
  }
},
{
  "type": "way",
  "id": 366465312,
  "center": {
    "lat": 6.4598508,
    "lon": 2.5442779
  },
  "nodes": [
    3704441199,
    3704441200,
    3704441201,
    3704441202,
    3704441199
  ],
  "tags": {
    "amenity": "townhall",
    "building": "yes",
    "name": "Arrondissement de Zoungamè"
  }
},
{
  "type": "way",
  "id": 415781858,
  "center": {
    "lat": 6.4323940,
    "lon": 2.6679751
  },
  "nodes": [
    4167450237,
    4167450235,
    4167450226,
    4167450228,
    4167450237
  ],
  "tags": {
    "amenity": "townhall",
    "building": "yes",
    "name": "Arrondissement de Tohouè"
  }
},
{
  "type": "way",
  "id": 410746872,
  "center": {
    "lat": 6.5787226,
    "lon": 2.5214456
  },
  "nodes": [
    4125281987,
    4125281986,
    4125281988,
    4125283889,
    4125281987
  ],
  "tags": {
    "amenity": "townhall",
    "building": "yes",
    "name": "Arrondissement de Késsounou",
    "source": "survey;GPS"
  }
},
{
  "type": "way",
  "id": 235099160,
  "nodes": [
    2431957512,
    2431957510,
    2431957509,
    2431957511,
    2431957512
  ],
  "tags": {
    "amenity": "townhall",
    "building": "yes",
    "man_made": "tower",
    "name": "Ministère de la Santé",
    "office": "administrative",
    "source": "Bing;survey"
  }
},
{
  "type": "way",
  "id": 366465312,
  "nodes": [
    3704441199,
    3704441200,
    3704441201,
    3704441202,
    3704441199
  ],
  "tags": {
    "amenity": "townhall",
    "building": "yes",
    "name": "Arrondissement de Zoungamè"
  }
},
{
  "type": "way",
  "id": 415781858,
  "nodes": [
    4167450237,
    4167450235,
    4167450226,
    4167450228,
    4167450237
  ],
  "tags": {
    "amenity": "townhall",
    "building": "yes",
    "name": "Arrondissement de Tohouè"
  }
},
{
  "type": "way",
  "id": 410746872,
  "nodes": [
    4125281987,
    4125281986,
    4125281988,
    4125283889,
    4125281987
  ],
  "tags": {
    "amenity": "townhall",
    "building": "yes",
    "name": "Arrondissement de Késsounou",
    "source": "survey;GPS"
  }
}

  ]
}
