{
"type": "FeatureCollection",
"features": [
{
  "type": "Feature",
  "id": "way/272486188",
  "properties": {
    "amenity": "hospital",
    "name": "Centre National Hospitalier Universitaire (CNHU)",
    "id": "way/272486188"
  },
  "geometry": {
    "type": "Point",
    "coordinates": [
      2.4101343,
      6.3547463
    ]
  }
},
{
  "type": "Feature",
  "id": "way/376980825",
  "properties": {
    "amenity": "hospital",
    "barrier": "wall",
    "name": "Hopital de Zone d'EKPE",
    "source": "bing",
    "source:date": "12/16/2013",
    "id": "way/376980825"
  },
  "geometry": {
    "type": "Point",
    "coordinates": [
      2.5415107,
      6.3867284
    ]
  }
},
{
  "type": "Feature",
  "id": "way/459613842",
  "properties": {
    "amenity": "hospital",
    "name": "Centre de Santé Houenoussou",
    "operator": "Etat",
    "id": "way/459613842"
  },
  "geometry": {
    "type": "Point",
    "coordinates": [
      2.382884,
      6.377058
    ]
  }
},
{
  "type": "Feature",
  "id": "node/2499528286",
  "properties": {
    "amenity": "hospital",
    "name": "Dispensaire DeSouza",
    "source": "GPS;survey",
    "id": "node/2499528286"
  },
  "geometry": {
    "type": "Point",
    "coordinates": [
      2.3948629,
      6.3831567
    ]
  }
},
{
  "type": "Feature",
  "id": "node/3260703525",
  "properties": {
    "amenity": "hospital",
    "name": "Hôpital de Menontin",
    "source:name": "survey",
    "id": "node/3260703525"
  },
  "geometry": {
    "type": "Point",
    "coordinates": [
      2.3652351,
      6.3899961
    ]
  }
},
{
  "type": "Feature",
  "id": "node/3592579493",
  "properties": {
    "amenity": "hospital",
    "name": "Centre Medical Nassira",
    "source": "gps;survey",
    "id": "node/3592579493"
  },
  "geometry": {
    "type": "Point",
    "coordinates": [
      2.3010582,
      6.3920956
    ]
  }
},
{
  "type": "Feature",
  "id": "node/3900428339",
  "properties": {
    "amenity": "hospital",
    "name": "Hopital Humanity Frist",
    "operator": "Privée",
    "phone": "0022997216262",
    "id": "node/3900428339"
  },
  "geometry": {
    "type": "Point",
    "coordinates": [
      2.310798,
      6.389307
    ]
  }
},
{
  "type": "Feature",
  "id": "node/3920702829",
  "properties": {
    "amenity": "hospital",
    "name": "Centre de santé Galilée",
    "operator": "ONG OVDH",
    "phone": "(+229) 97065593/ 95031840",
    "id": "node/3920702829"
  },
  "geometry": {
    "type": "Point",
    "coordinates": [
      2.3239034,
      6.3899938
    ]
  }
},
{
  "type": "Feature",
  "id": "node/3949940791",
  "properties": {
    "amenity": "hospital",
    "name": "Hôpital Saint Augustin",
    "phone": "21037893",
    "id": "node/3949940791"
  },
  "geometry": {
    "type": "Point",
    "coordinates": [
      2.3278447,
      6.39188
    ]
  }
},
{
  "type": "Feature",
  "id": "node/3949957862",
  "properties": {
    "amenity": "hospital",
    "name": "Centre de santé Shalom",
    "phone": "95953316",
    "id": "node/3949957862"
  },
  "geometry": {
    "type": "Point",
    "coordinates": [
      2.3290904,
      6.3907425
    ]
  }
},
{
  "type": "Feature",
  "id": "node/3969886224",
  "properties": {
    "amenity": "hospital",
    "name": "Centre de santé de la commune d’Abomey-Calavi",
    "id": "node/3969886224"
  },
  "geometry": {
    "type": "Point",
    "coordinates": [
      2.3533443,
      6.4484028
    ]
  }
},
{
  "type": "Feature",
  "id": "node/3976417069",
  "properties": {
    "amenity": "hospital",
    "name": "Clinique pédiatrique d’Abomey-Calavi",
    "opening_hours": "24/7",
    "phone": "(+229)95372161/95863945",
    "id": "node/3976417069"
  },
  "geometry": {
    "type": "Point",
    "coordinates": [
      2.3443859,
      6.4343656
    ]
  }
},
{
  "type": "Feature",
  "id": "node/3989796513",
  "properties": {
    "amenity": "hospital",
    "healthcare": "yes",
    "name": "Centre de santé public de Maria Gleta",
    "source": "Pleiade_2016",
    "id": "node/3989796513"
  },
  "geometry": {
    "type": "Point",
    "coordinates": [
      2.3018412,
      6.4277418
    ]
  }
},
{
  "type": "Feature",
  "id": "node/3989799358",
  "properties": {
    "amenity": "hospital",
    "name": "Clinique centrale de Calavi",
    "phone": "(+229)66789301/95068743/99476827",
    "id": "node/3989799358"
  },
  "geometry": {
    "type": "Point",
    "coordinates": [
      2.3497055,
      6.4326386
    ]
  }
},
{
  "type": "Feature",
  "id": "node/4016630242",
  "properties": {
    "amenity": "hospital",
    "name": "Centre de santé de Togba maternité",
    "id": "node/4016630242"
  },
  "geometry": {
    "type": "Point",
    "coordinates": [
      2.3038475,
      6.4635913
    ]
  }
},
{
  "type": "Feature",
  "id": "node/4019451629",
  "properties": {
    "amenity": "hospital",
    "emergency": "no",
    "name": "Centre Médical Albert Schweitzer",
    "id": "node/4019451629"
  },
  "geometry": {
    "type": "Point",
    "coordinates": [
      2.3429074,
      6.4069524
    ]
  }
},
{
  "type": "Feature",
  "id": "node/4029928434",
  "properties": {
    "amenity": "hospital",
    "name": "Hopital de zone d’Abomey-Calavi",
    "id": "node/4029928434"
  },
  "geometry": {
    "type": "Point",
    "coordinates": [
      2.3426891,
      6.4730697
    ]
  }
},
{
  "type": "Feature",
  "id": "node/4113030008",
  "properties": {
    "abandoned": "no",
    "amenity": "hospital",
    "disused": "no",
    "health_facility:type": "hospital",
    "name": "CENTRE MEDICO SOCIAL DE HOULAZOUME",
    "operator": "CROIX ROUGE",
    "operator:type": "ngo",
    "source": "Bing;survey",
    "id": "node/4113030008"
  },
  "geometry": {
    "type": "Point",
    "coordinates": [
      2.541073,
      6.4524724
    ]
  }
},
{
  "type": "Feature",
  "id": "node/4161715092",
  "properties": {
    "amenity": "hospital",
    "name": "CNHU",
    "id": "node/4161715092"
  },
  "geometry": {
    "type": "Point",
    "coordinates": [
      2.3442712,
      6.4148248
    ]
  }
},
{
  "type": "Feature",
  "id": "node/4172329288",
  "properties": {
    "amenity": "hospital",
    "name": "Hopital de Zone de SURU LERE",
    "id": "node/4172329288"
  },
  "geometry": {
    "type": "Point",
    "coordinates": [
      2.4629357,
      6.3819772
    ]
  }
},
{
  "type": "Feature",
  "id": "node/4187858341",
  "properties": {
    "amenity": "hospital",
    "name": "Clinique St. Benjamin",
    "id": "node/4187858341"
  },
  "geometry": {
    "type": "Point",
    "coordinates": [
      2.3274833,
      6.4024688
    ]
  }
},
{
  "type": "Feature",
  "id": "node/4208098202",
  "properties": {
    "amenity": "hospital",
    "name": "Hopital Misséssin",
    "id": "node/4208098202"
  },
  "geometry": {
    "type": "Point",
    "coordinates": [
      2.4473709,
      6.370693
    ]
  }
},
{
  "type": "Feature",
  "id": "node/4228452693",
  "properties": {
    "amenity": "hospital",
    "name": "Hopital de Zone Ayélawadjè",
    "id": "node/4228452693"
  },
  "geometry": {
    "type": "Point",
    "coordinates": [
      2.4498446,
      6.3781288
    ]
  }
},
{
  "type": "Feature",
  "id": "node/4249997051",
  "properties": {
    "addr:housenumber": "1278",
    "amenity": "hospital",
    "description": "chirurgie générale et spécialités, imagerie et analyses biomédicales",
    "email": "sainteanned.afrique@gmail.com",
    "name": "Centre médico-social Sainte Anne d'Afrique",
    "phone": "21315850",
    "id": "node/4249997051"
  },
  "geometry": {
    "type": "Point",
    "coordinates": [
      2.4258161,
      6.3606694
    ]
  }
},
{
  "type": "Feature",
  "id": "node/4254408220",
  "properties": {
    "amenity": "hospital",
    "name": "Centre d'isolement MVE",
    "id": "node/4254408220"
  },
  "geometry": {
    "type": "Point",
    "coordinates": [
      2.4223591,
      6.386063
    ]
  }
},
{
  "type": "Feature",
  "id": "node/4254408221",
  "properties": {
    "amenity": "hospital",
    "name": "Centre de santé d'Ahouansori-Agué",
    "id": "node/4254408221"
  },
  "geometry": {
    "type": "Point",
    "coordinates": [
      2.4219845,
      6.3857765
    ]
  }
},
{
  "type": "Feature",
  "id": "node/4309638150",
  "properties": {
    "amenity": "hospital",
    "name": "Centre de santé d’arrondissement (CSA) de Dèkoungbé",
    "id": "node/4309638150"
  },
  "geometry": {
    "type": "Point",
    "coordinates": [
      2.3225833,
      6.3736833
    ]
  }
},
{
  "type": "Feature",
  "id": "node/4309638154",
  "properties": {
    "amenity": "hospital",
    "name": "Centre de santé d’arrondissement (CSA) de Womey",
    "id": "node/4309638154"
  },
  "geometry": {
    "type": "Point",
    "coordinates": [
      2.29973,
      6.4108967
    ]
  }
},
{
  "type": "Feature",
  "id": "node/4309638912",
  "properties": {
    "amenity": "hospital",
    "name": "Centre de santé Eau-vive",
    "id": "node/4309638912"
  },
  "geometry": {
    "type": "Point",
    "coordinates": [
      2.3171933,
      6.4031433
    ]
  }
},
{
  "type": "Feature",
  "id": "node/4309639320",
  "properties": {
    "amenity": "hospital",
    "name": "Centre de santé Eau-vive",
    "id": "node/4309639320"
  },
  "geometry": {
    "type": "Point",
    "coordinates": [
      2.3162433,
      6.4045283
    ]
  }
},
{
  "type": "Feature",
  "id": "node/4309639542",
  "properties": {
    "amenity": "hospital",
    "name": "Centre de santé d’arrondissement (CSA) de Cococodji",
    "id": "node/4309639542"
  },
  "geometry": {
    "type": "Point",
    "coordinates": [
      2.2715231,
      6.3837146
    ]
  }
},
{
  "type": "Feature",
  "id": "node/4309639547",
  "properties": {
    "amenity": "hospital",
    "name": "Centre de Santé public de Godomey",
    "id": "node/4309639547"
  },
  "geometry": {
    "type": "Point",
    "coordinates": [
      2.345898,
      6.3897357
    ]
  }
},
{
  "type": "Feature",
  "id": "node/4311038853",
  "properties": {
    "amenity": "hospital",
    "name": "Centre de Santé de AKASSATO",
    "id": "node/4311038853"
  },
  "geometry": {
    "type": "Point",
    "coordinates": [
      2.3631655,
      6.5083702
    ]
  }
},
{
  "type": "Feature",
  "id": "node/4312717843",
  "properties": {
    "addr:hamlet": "Dogodo",
    "amenity": "hospital",
    "name": "Centre de santé de So-Ava",
    "id": "node/4312717843"
  },
  "geometry": {
    "type": "Point",
    "coordinates": [
      2.3994746,
      6.5015281
    ]
  }
},
{
  "type": "Feature",
  "id": "node/4312742170",
  "properties": {
    "addr:hamlet": "Houedo-Aguekon",
    "amenity": "hospital",
    "name": "Centre de santé de Houedo-Aguekon",
    "id": "node/4312742170"
  },
  "geometry": {
    "type": "Point",
    "coordinates": [
      2.4575849,
      6.4982139
    ]
  }
},
{
  "type": "Feature",
  "id": "node/4313114200",
  "properties": {
    "addr:hamlet": "Ganvié",
    "amenity": "hospital",
    "name": "Centre de santé de Ganvié",
    "id": "node/4313114200"
  },
  "geometry": {
    "type": "Point",
    "coordinates": [
      2.3913296,
      6.4747325
    ]
  }
},
{
  "type": "Feature",
  "id": "node/4313202182",
  "properties": {
    "addr:hamlet": "Sotchanhoué",
    "amenity": "hospital",
    "name": "Centre de santé saint Joseph",
    "id": "node/4313202182"
  },
  "geometry": {
    "type": "Point",
    "coordinates": [
      2.4128787,
      6.4742275
    ]
  }
},
{
  "type": "Feature",
  "id": "node/4313209398",
  "properties": {
    "addr:hamlet": "Vekky",
    "amenity": "hospital",
    "name": "Centre de santé de Vekky",
    "id": "node/4313209398"
  },
  "geometry": {
    "type": "Point",
    "coordinates": [
      2.4171273,
      6.4809755
    ]
  }
},
{
  "type": "Feature",
  "id": "node/4323401508",
  "properties": {
    "amenity": "hospital",
    "id": "node/4323401508"
  },
  "geometry": {
    "type": "Point",
    "coordinates": [
      2.5440858,
      6.4547159
    ]
  }
},
{
  "type": "Feature",
  "id": "node/4403019206",
  "properties": {
    "addr:housenumber": "274",
    "addr:street": "Rue ROI DAKO DONOU R. 5.132",
    "amenity": "hospital",
    "name": "Hôpital de l'enfant et de la mère lagune",
    "phone": "+22921317115",
    "id": "node/4403019206"
  },
  "geometry": {
    "type": "Point",
    "coordinates": [
      2.4383377,
      6.3614434
    ]
  }
},
{
  "type": "Feature",
  "id": "node/4488813057",
  "properties": {
    "amenity": "hospital",
    "name": "CS Cotonou 1",
    "id": "node/4488813057"
  },
  "geometry": {
    "type": "Point",
    "coordinates": [
      2.4380992,
      6.359901
    ]
  }
},
{
  "type": "Feature",
  "id": "node/4709867091",
  "properties": {
    "amenity": "hospital",
    "name": "Doctors",
    "operator": "Hopital",
    "id": "node/4709867091"
  },
  "geometry": {
    "type": "Point",
    "coordinates": [
      2.396565,
      6.3536984
    ]
  }
},
{
  "type": "Feature",
  "id": "node/4711849512",
  "properties": {
    "amenity": "hospital",
    "name": "Centre Médical Saint Jean",
    "source": "gps,survey",
    "id": "node/4711849512"
  },
  "geometry": {
    "type": "Point",
    "coordinates": [
      2.4148459,
      6.3639754
    ]
  }
},
{
  "type": "Feature",
  "id": "node/4716412133",
  "properties": {
    "amenity": "hospital",
    "name": "Centre médical Saint Jean",
    "id": "node/4716412133"
  },
  "geometry": {
    "type": "Point",
    "coordinates": [
      2.414959,
      6.3639273
    ]
  }
}
]
}
